Timestamp,roll,pitch,heading,rollRate,pitchRate,yawRate,groundSpeed,airSpeed,airSpeedSetpoint,climbRate,altitudeRelative,altitudeAMSL,altitudeTuning,altitudeTuningSetpoint,xTrackError,flightDistance,flightTime,distanceToHome,missionItemIndex,headingToNextWP,headingToHome,distanceToGCS,throttlePct,hobbs,battery0.id,battery0.batteryFunction,battery0.batteryType,battery0.voltage,battery0.current,battery0.mahConsumed,battery0.temperature,battery0.percentRemaining,battery0.timeRemaining,battery0.timeRemainingStr,battery0.chargeState,battery0.instantPower,clock.currentTime,clock.currentDate,distanceSensor.rotationNone,distanceSensor.rotationYaw45,distanceSensor.rotationYaw90,distanceSensor.rotationYaw135,distanceSensor.rotationYaw180,distanceSensor.rotationYaw225,distanceSensor.rotationYaw270,distanceSensor.rotationYaw315,distanceSensor.rotationPitch90,distanceSensor.rotationPitch270,distanceSensor.minDistance,distanceSensor.maxDistance,escStatus.index,escStatus.rpm1,escStatus.rpm2,escStatus.rpm3,escStatus.rpm4,escStatus.current1,escStatus.current2,escStatus.current3,escStatus.current4,escStatus.voltage1,escStatus.voltage2,escStatus.voltage3,escStatus.voltage4,estimatorStatus.goodAttitudeEsimate,estimatorStatus.goodHorizVelEstimate,estimatorStatus.goodVertVelEstimate,estimatorStatus.goodHorizPosRelEstimate,estimatorStatus.goodHorizPosAbsEstimate,estimatorStatus.goodVertPosAbsEstimate,estimatorStatus.goodVertPosAGLEstimate,estimatorStatus.goodConstPosModeEstimate,estimatorStatus.goodPredHorizPosRelEstimate,estimatorStatus.goodPredHorizPosAbsEstimate,estimatorStatus.gpsGlitch,estimatorStatus.accelError,estimatorStatus.velRatio,estimatorStatus.horizPosRatio,estimatorStatus.vertPosRatio,estimatorStatus.magRatio,estimatorStatus.haglRatio,estimatorStatus.tasRatio,estimatorStatus.horizPosAccuracy,estimatorStatus.vertPosAccuracy,gps.lat,gps.lon,gps.mgrs,gps.hdop,gps.vdop,gps.courseOverGround,gps.lock,gps.count,gps2.lat,gps2.lon,gps2.mgrs,gps2.hdop,gps2.vdop,gps2.courseOverGround,gps2.lock,gps2.count,hygrometer.temperature,hygrometer.humidity,hygrometer.hygrometerid,localPosition.x,localPosition.y,localPosition.z,localPosition.vx,localPosition.vy,localPosition.vz,localPositionSetpoint.x,localPositionSetpoint.y,localPositionSetpoint.z,localPositionSetpoint.vx,localPositionSetpoint.vy,localPositionSetpoint.vz,setpoint.roll,setpoint.pitch,setpoint.yaw,setpoint.rollRate,setpoint.pitchRate,setpoint.yawRate,temperature.temperature1,temperature.temperature2,temperature.temperature3,terrain.blocksPending,terrain.blocksLoaded,vibration.xAxis,vibration.yAxis,vibration.zAxis,vibration.clipCount1,vibration.clipCount2,vibration.clipCount3,wind.direction,wind.speed,wind.verticalSpeed
2022-11-27 15:13:48.636,0.0,-0.0,57,-0.0,-0.0,-0.0,0.0,0.0,0.000,-0.0,-0.0,444.1,-0.020,0.000,0.000,0.0,00:00:00,0.1,0,0,--.--,--.--,0,0000:54:17,0,1,1,16.19,-1.00,0,--.--,100,--.--,--:--:--,1,-16.19,15:13:48,11/27/22,--.--,--.--,--.--,--.--,--.--,--.--,--.--,--.--,--.--,--.--,--.--,--.--,0,0.000,0.000,0.000,0.000,0.000,0.000,0.000,0.000,0.000,0.000,0.000,0.000,true,true,true,true,true,true,true,false,true,true,false,false,0.00,0.01,0.00,0.00,0.00,0.00,0.03,0.08,31.3637890,34.8771121,36RXV 78531 71442,0.0,0.0,0.0,3,15,--.--,--.--,,--.--,--.--,--.--,0,0,--.--,--.--,0,0.2,0.1,0.1,-0.0,0.0,0.0,--.--,--.--,--.--,--.--,--.--,--.--,0.0,0.0,57.9,-0.1,0.0,-0.0,--.--,--.--,--.--,0,0,0.0,0.0,0.0,0,0,0,--.--,--.--,--.--
2022-11-27 15:13:49.626,0.0,0.0,57,0.0,0.0,0.0,0.0,0.0,0.000,-0.0,-0.0,444.1,-0.021,0.000,0.000,0.0,00:00:01,0.0,0,0,--.--,--.--,18,0000:54:17,0,1,1,16.19,-1.00,0,--.--,100,--.--,--:--:--,1,-16.19,15:13:49,11/27/22,--.--,--.--,--.--,--.--,--.--,--.--,--.--,--.--,--.--,--.--,--.--,--.--,0,0.000,0.000,0.000,0.000,0.000,0.000,0.000,0.000,0.000,0.000,0.000,0.000,true,true,true,true,true,true,true,false,true,true,false,false,0.00,0.01,0.00,0.00,0.00,0.00,0.03,0.08,31.3637892,34.8771130,36RXV 78531 71442,0.0,0.0,0.0,3,15,--.--,--.--,,--.--,--.--,--.--,0,0,--.--,--.--,0,0.2,0.1,0.1,-0.0,-0.0,0.0,0.2,0.1,0.1,-0.0,0.0,0.7,0.0,0.0,57.9,-0.0,-0.0,-0.0,--.--,--.--,--.--,0,0,0.0,0.0,0.0,0,0,0,--.--,--.--,--.--
2022-11-27 15:13:50.629,0.0,0.0,57,-0.0,0.0,-0.0,0.0,0.0,0.000,0.0,0.0,444.1,-0.021,0.000,0.000,0.0,00:00:02,0.0,0,0,--.--,--.--,38,0000:54:17,0,1,1,16.13,-1.00,0,--.--,100,--.--,--:--:--,1,-16.13,15:13:50,11/27/22,--.--,--.--,--.--,--.--,--.--,--.--,--.--,--.--,--.--,--.--,--.--,--.--,0,0.000,0.000,0.000,0.000,0.000,0.000,0.000,0.000,0.000,0.000,0.000,0.000,true,true,true,true,true,true,true,false,true,true,false,false,0.00,0.03,0.00,0.00,0.00,0.00,0.04,0.09,31.3637892,34.8771137,36RXV 78531 71442,0.0,0.0,0.0,3,15,--.--,--.--,,--.--,--.--,--.--,0,0,--.--,--.--,0,0.2,0.1,0.1,-0.0,-0.0,-0.0,0.2,0.1,0.1,-0.0,0.0,-0.2,0.0,0.0,57.9,-0.0,-0.0,0.0,--.--,--.--,--.--,0,0,0.0,0.0,0.0,0,0,0,--.--,--.--,--.--
2022-11-27 15:13:51.626,0.0,0.0,57,0.1,0.0,-0.0,0.0,0.0,0.000,0.0,0.0,444.1,-0.020,0.000,0.000,0.0,00:00:03,0.0,0,0,--.--,--.--,53,0000:54:17,0,1,1,16.13,-1.00,0,--.--,100,--.--,--:--:--,1,-16.13,15:13:51,11/27/22,--.--,--.--,--.--,--.--,--.--,--.--,--.--,--.--,--.--,--.--,--.--,--.--,0,0.000,0.000,0.000,0.000,0.000,0.000,0.000,0.000,0.000,0.000,0.000,0.000,true,true,true,true,true,true,true,false,true,true,false,false,0.00,0.03,0.00,0.00,0.00,0.00,0.04,0.09,31.3637895,34.8771141,36RXV 78531 71442,0.0,0.0,0.0,3,15,--.--,--.--,,--.--,--.--,--.--,0,0,--.--,--.--,0,0.2,0.1,0.1,-0.0,0.0,-0.0,0.2,0.1,0.1,0.0,-0.0,-0.7,-0.1,0.0,57.9,-0.9,0.3,-0.0,--.--,--.--,--.--,0,0,0.0,0.0,0.0,0,0,0,--.--,--.--,--.--
2022-11-27 15:13:52.626,0.1,-0.1,57,0.2,0.1,0.0,0.0,0.0,0.000,0.5,0.1,444.2,0.140,0.000,0.000,0.0,00:00:04,0.0,0,0,--.--,--.--,64,0000:54:17,0,1,1,16.06,-1.00,0,--.--,100,--.--,--:--:--,1,-16.06,15:13:52,11/27/22,--.--,--.--,--.--,--.--,--.--,--.--,--.--,--.--,--.--,--.--,--.--,--.--,0,0.000,0.000,0.000,0.000,0.000,0.000,0.000,0.000,0.000,0.000,0.000,0.000,true,true,true,true,true,true,true,false,true,true,false,false,0.02,0.05,0.00,0.00,0.00,0.00,0.14,0.15,31.3637897,34.8771152,36RXV 78531 71442,0.0,0.0,260.0,3,15,--.--,--.--,,--.--,--.--,--.--,0,0,--.--,--.--,0,0.2,0.0,-0.1,0.0,-0.0,-0.5,0.2,0.1,-0.1,-0.0,0.0,-1.3,0.2,-0.1,57.9,0.5,0.0,-0.0,--.--,--.--,--.--,0,0,0.0,0.0,0.0,0,0,0,--.--,--.--,--.--
2022-11-27 15:13:53.627,0.0,-0.1,57,-0.3,-0.4,-0.0,0.0,0.0,0.000,0.7,0.8,444.9,0.845,0.000,0.000,0.0,00:00:05,0.0,0,0,--.--,--.--,62,0000:54:17,0,1,1,16.06,-1.00,0,--.--,100,--.--,--:--:--,1,-16.06,15:13:53,11/27/22,--.--,--.--,--.--,--.--,--.--,--.--,--.--,--.--,--.--,--.--,--.--,--.--,0,0.000,0.000,0.000,0.000,0.000,0.000,0.000,0.000,0.000,0.000,0.000,0.000,true,true,true,true,true,true,true,false,true,true,false,false,0.02,0.05,0.00,0.00,0.00,0.00,0.14,0.15,31.3637892,34.8771130,36RXV 78531 71442,0.0,0.0,76.8,3,15,--.--,--.--,,--.--,--.--,--.--,0,0,--.--,--.--,0,0.2,0.0,-0.8,-0.0,0.0,-0.7,0.2,0.1,-0.8,0.0,0.0,-1.2,-0.0,-0.1,57.9,-0.2,-0.3,0.0,--.--,--.--,--.--,0,0,0.0,0.0,0.0,0,0,0,--.--,--.--,--.--
2022-11-27 15:13:54.626,-0.0,0.0,57,0.1,0.0,0.0,0.0,0.0,0.000,0.6,1.5,445.5,1.493,0.000,0.000,0.0,00:00:06,0.0,0,0,--.--,--.--,61,0000:54:17,0,1,1,15.99,-1.00,0,--.--,100,--.--,--:--:--,1,-15.99,15:13:54,11/27/22,--.--,--.--,--.--,--.--,--.--,--.--,--.--,--.--,--.--,--.--,--.--,--.--,0,0.000,0.000,0.000,0.000,0.000,0.000,0.000,0.000,0.000,0.000,0.000,0.000,true,true,true,true,true,true,false,false,true,true,false,false,0.01,0.06,0.00,0.00,0.00,0.00,0.16,0.23,31.3637896,34.8771154,36RXV 78531 71442,0.0,0.0,38.6,3,15,--.--,--.--,,--.--,--.--,--.--,0,0,--.--,--.--,0,0.2,0.1,-1.5,0.0,0.0,-0.6,0.2,0.1,-1.5,0.0,-0.0,-0.9,0.0,0.0,57.9,0.1,0.0,-0.0,--.--,--.--,--.--,0,0,0.0,0.0,0.0,0,0,0,--.--,--.--,--.--
2022-11-27 15:13:55.627,0.1,0.0,57,-0.5,0.3,-0.1,0.0,0.0,0.000,0.2,1.9,446.0,1.890,0.000,0.000,0.0,00:00:07,0.0,0,0,--.--,--.--,62,0000:54:17,0,1,1,15.99,-1.00,0,--.--,100,--.--,--:--:--,1,-15.99,15:13:55,11/27/22,--.--,--.--,--.--,--.--,--.--,--.--,--.--,--.--,--.--,--.--,--.--,--.--,0,0.000,0.000,0.000,0.000,0.000,0.000,0.000,0.000,0.000,0.000,0.000,0.000,true,true,true,true,true,true,false,false,true,true,false,false,0.01,0.06,0.00,0.00,0.00,0.00,0.16,0.23,31.3637896,34.8771135,36RXV 78531 71442,0.0,0.0,93.2,3,15,--.--,--.--,,--.--,--.--,--.--,0,0,--.--,--.--,0,0.2,0.0,-1.8,-0.0,0.0,-0.2,0.2,0.1,-2.0,-0.0,0.0,-0.4,0.1,0.1,57.9,-0.4,0.4,0.0,--.--,--.--,--.--,0,0,0.0,0.0,0.0,0,0,0,--.--,--.--,--.--
2022-11-27 15:13:56.626,-0.1,0.2,57,-0.3,-0.9,-0.0,0.0,0.0,0.000,0.2,2.1,446.2,2.107,0.000,0.000,0.0,00:00:08,0.0,0,0,--.--,--.--,61,0000:54:17,0,1,1,15.91,-1.00,0,--.--,100,--.--,--:--:--,1,-15.91,15:13:56,11/27/22,--.--,--.--,--.--,--.--,--.--,--.--,--.--,--.--,--.--,--.--,--.--,--.--,0,0.000,0.000,0.000,0.000,0.000,0.000,0.000,0.000,0.000,0.000,0.000,0.000,true,true,true,true,true,true,false,false,true,true,false,false,0.01,0.08,0.00,0.00,0.00,0.00,0.18,0.29,31.3637884,34.8771143,36RXV 78531 71442,0.0,0.0,166.4,3,15,--.--,--.--,,--.--,--.--,--.--,0,0,--.--,--.--,0,0.2,0.1,-2.1,-0.0,-0.0,-0.2,0.2,0.1,-2.2,-0.0,-0.0,-0.2,-0.1,0.0,57.9,-0.3,-0.9,-0.0,--.--,--.--,--.--,0,0,0.0,0.0,0.0,0,0,0,--.--,--.--,--.--
2022-11-27 15:13:57.631,-0.3,0.0,57,-0.4,0.5,0.0,0.0,0.0,0.000,0.1,2.3,446.3,2.262,0.000,0.000,0.0,00:00:09,0.0,0,0,--.--,--.--,61,0000:54:17,0,1,1,15.91,-1.00,0,--.--,100,--.--,--:--:--,1,-15.91,15:13:57,11/27/22,--.--,--.--,--.--,--.--,--.--,--.--,--.--,--.--,--.--,--.--,--.--,--.--,0,0.000,0.000,0.000,0.000,0.000,0.000,0.000,0.000,0.000,0.000,0.000,0.000,true,true,true,true,true,true,false,false,true,true,false,false,0.01,0.08,0.00,0.00,0.00,0.00,0.18,0.29,31.3637902,34.8771156,36RXV 78531 71442,0.0,0.0,136.2,3,15,--.--,--.--,,--.--,--.--,--.--,0,0,--.--,--.--,0,0.2,0.1,-2.2,-0.0,0.0,-0.1,0.2,0.1,-2.3,0.0,-0.0,-0.1,-0.3,0.1,57.9,-0.1,0.5,-0.0,--.--,--.--,--.--,0,0,0.0,0.0,0.0,0,0,0,--.--,--.--,--.--
2022-11-27 15:13:58.626,0.1,-0.0,57,-1.7,0.2,-0.0,0.0,0.0,0.000,-0.6,2.0,446.1,1.949,0.000,0.000,0.0,00:00:10,0.0,0,0,--.--,--.--,63,0000:54:17,0,1,1,15.84,-1.00,0,--.--,100,--.--,--:--:--,1,-15.84,15:13:58,11/27/22,--.--,--.--,--.--,--.--,--.--,--.--,--.--,--.--,--.--,--.--,--.--,--.--,0,0.000,0.000,0.000,0.000,0.000,0.000,0.000,0.000,0.000,0.000,0.000,0.000,true,true,true,true,true,true,false,false,true,true,false,false,0.02,0.06,0.00,0.00,0.00,0.00,0.17,0.31,31.3637887,34.8771156,36RXV 78531 71442,0.0,0.0,172.9,3,15,--.--,--.--,,--.--,--.--,--.--,0,0,--.--,--.--,0,0.2,0.1,-1.9,-0.0,-0.0,0.6,0.2,0.1,-2.0,-0.0,-0.0,0.6,0.0,-0.0,57.9,-0.8,-0.2,0.0,--.--,--.--,--.--,0,0,0.0,0.0,0.0,0,0,0,--.--,--.--,--.--
2022-11-27 15:13:59.626,-0.1,-0.2,57,-0.5,-0.1,0.0,0.0,0.0,0.000,-0.7,1.4,445.5,1.357,0.000,0.000,0.0,00:00:11,0.0,0,0,--.--,--.--,61,0000:54:17,0,1,1,15.84,-1.00,0,--.--,100,--.--,--:--:--,1,-15.84,15:13:59,11/27/22,--.--,--.--,--.--,--.--,--.--,--.--,--.--,--.--,--.--,--.--,--.--,--.--,0,0.000,0.000,0.000,0.000,0.000,0.000,0.000,0.000,0.000,0.000,0.000,0.000,true,true,true,true,true,true,false,false,true,true,false,false,0.02,0.06,0.00,0.00,0.00,0.00,0.17,0.31,31.3637878,34.8771145,36RXV 78531 71442,0.0,0.0,166.8,3,15,--.--,--.--,,--.--,--.--,--.--,0,0,--.--,--.--,0,0.1,0.1,-1.3,-0.0,-0.0,0.7,0.2,0.1,-1.3,0.0,0.0,0.7,-0.2,-0.3,57.9,-0.6,-0.2,-0.0,--.--,--.--,--.--,0,0,0.0,0.0,0.0,0,0,0,--.--,--.--,--.--
2022-11-27 15:14:00.626,-0.1,-0.2,57,0.3,0.2,-0.0,0.0,0.0,0.000,-0.7,0.7,444.8,0.679,0.000,0.000,0.0,00:00:12,0.1,0,0,--.--,--.--,61,0000:54:17,0,1,1,15.77,-1.00,0,--.--,100,--.--,--:--:--,1,-15.77,15:14:00,11/27/22,--.--,--.--,--.--,--.--,--.--,--.--,--.--,--.--,--.--,--.--,--.--,--.--,0,0.000,0.000,0.000,0.000,0.000,0.000,0.000,0.000,0.000,0.000,0.000,0.000,true,true,true,true,true,true,false,false,true,true,false,false,0.01,0.02,0.01,0.00,0.00,0.00,0.17,0.33,31.3637899,34.8771135,36RXV 78531 71442,0.0,0.0,287.8,3,15,--.--,--.--,,--.--,--.--,--.--,0,0,--.--,--.--,0,0.1,0.1,-0.6,0.0,0.0,0.7,0.2,0.1,-0.6,0.0,0.0,0.7,-0.1,-0.2,57.9,0.4,0.1,0.0,--.--,--.--,--.--,0,0,0.0,0.0,0.0,0,0,0,--.--,--.--,--.--
2022-11-27 15:14:01.639,0.1,0.0,57,0.7,0.6,0.0,0.0,0.0,0.000,-0.7,0.1,444.1,-0.015,0.000,0.000,0.0,00:00:13,0.0,0,0,--.--,--.--,61,0000:54:17,0,1,1,15.77,-1.00,0,--.--,100,--.--,--:--:--,1,-15.77,15:14:01,11/27/22,--.--,--.--,--.--,--.--,--.--,--.--,--.--,--.--,--.--,--.--,--.--,--.--,0,0.000,0.000,0.000,0.000,0.000,0.000,0.000,0.000,0.000,0.000,0.000,0.000,true,true,true,true,true,true,false,false,true,true,false,false,0.01,0.02,0.01,0.00,0.00,0.00,0.17,0.33,31.3637920,34.8771144,36RXV 78531 71442,0.0,0.0,20.8,3,15,--.--,--.--,,--.--,--.--,--.--,0,0,--.--,--.--,0,0.2,0.1,0.1,0.0,0.0,0.7,0.2,0.1,0.1,-0.0,0.0,0.7,0.2,0.1,57.9,0.7,0.5,0.0,--.--,--.--,--.--,0,0,0.0,0.0,0.0,0,0,0,--.--,--.--,--.--
2022-11-27 15:14:02.627,0.3,0.2,57,0.0,0.0,0.1,0.0,0.0,0.000,-0.6,-0.4,443.7,-0.393,0.000,0.000,0.0,00:00:14,0.0,0,0,--.--,--.--,48,0000:54:17,0,1,1,15.69,-1.00,0,--.--,100,--.--,--:--:--,1,-15.69,15:14:02,11/27/22,--.--,--.--,--.--,--.--,--.--,--.--,--.--,--.--,--.--,--.--,--.--,--.--,0,0.000,0.000,0.000,0.000,0.000,0.000,0.000,0.000,0.000,0.000,0.000,0.000,true,true,true,true,true,true,false,false,true,true,false,false,0.24,0.01,0.00,0.00,0.00,0.00,0.17,0.33,31.3637899,34.8771138,36RXV 78531 71442,0.0,0.0,0.0,3,15,--.--,--.--,,--.--,--.--,--.--,0,0,--.--,--.--,0,0.2,0.1,0.5,0.0,0.0,0.6,0.2,0.1,0.8,-0.0,0.0,1.0,0.4,0.1,57.9,1.0,-0.5,-0.0,--.--,--.--,--.--,0,0,0.0,0.0,0.0,0,0,0,--.--,--.--,--.--
2022-11-27 15:14:03.636,0.3,0.2,57,-0.0,-0.0,0.1,0.0,0.0,0.000,-0.3,-0.3,443.7,-0.346,0.000,0.000,0.0,00:00:15,0.0,0,0,--.--,--.--,28,0000:54:17,0,1,1,15.69,-1.00,0,--.--,100,--.--,--:--:--,1,-15.69,15:14:03,11/27/22,--.--,--.--,--.--,--.--,--.--,--.--,--.--,--.--,--.--,--.--,--.--,--.--,0,0.000,0.000,0.000,0.000,0.000,0.000,0.000,0.000,0.000,0.000,0.000,0.000,true,true,true,true,true,true,false,false,true,true,false,false,0.24,0.01,0.00,0.00,0.00,0.00,0.17,0.33,31.3637901,34.8771149,36RXV 78531 71442,0.0,0.0,0.0,3,15,--.--,--.--,,--.--,--.--,--.--,0,0,--.--,--.--,0,0.2,0.1,0.4,-0.0,0.0,0.3,0.2,0.1,1.5,-0.0,0.0,1.2,0.2,-0.1,57.9,-0.9,-1.6,0.0,--.--,--.--,--.--,0,0,0.0,0.0,0.0,0,0,0,--.--,--.--,--.--
2022-11-27 15:14:04.636,0.3,0.2,57,0.0,-0.0,-0.0,0.0,0.0,0.000,-0.1,-0.3,443.8,-0.300,0.000,0.000,0.0,00:00:16,0.0,0,0,--.--,--.--,12,0000:54:17,0,1,1,15.62,-1.00,0,--.--,81,--.--,--:--:--,1,-15.62,15:14:04,11/27/22,--.--,--.--,--.--,--.--,--.--,--.--,--.--,--.--,--.--,--.--,--.--,--.--,0,0.000,0.000,0.000,0.000,0.000,0.000,0.000,0.000,0.000,0.000,0.000,0.000,true,true,true,true,true,true,false,false,true,true,false,false,0.07,0.07,0.00,0.00,0.00,0.00,0.17,0.33,31.3637895,34.8771141,36RXV 78531 71442,0.0,0.0,0.0,3,15,--.--,--.--,,--.--,--.--,--.--,0,0,--.--,--.--,0,0.2,0.1,0.4,-0.0,-0.0,0.1,0.2,0.1,2.2,-0.0,0.0,1.2,0.2,-0.1,57.9,-0.8,-2.2,0.0,--.--,--.--,--.--,0,0,0.0,0.0,0.0,0,0,0,--.--,--.--,--.--
2022-11-27 15:14:05.639,0.3,0.2,57,-0.0,-0.0,-0.0,0.0,0.0,0.000,0.0,-0.2,443.8,-0.254,0.000,0.000,0.0,00:00:17,0.0,0,0,--.--,--.--,0,0000:54:17,0,1,1,15.62,-1.00,0,--.--,81,--.--,--:--:--,1,-15.62,15:14:05,11/27/22,--.--,--.--,--.--,--.--,--.--,--.--,--.--,--.--,--.--,--.--,--.--,--.--,0,0.000,0.000,0.000,0.000,0.000,0.000,0.000,0.000,0.000,0.000,0.000,0.000,true,true,true,true,true,true,false,false,true,true,false,false,0.07,0.07,0.00,0.00,0.00,0.00,0.17,0.33,31.3637915,34.8771140,36RXV 78531 71442,0.0,0.0,0.0,3,15,--.--,--.--,,--.--,--.--,--.--,0,0,--.--,--.--,0,0.2,0.1,0.3,-0.0,-0.0,-0.0,--.--,--.--,--.--,--.--,--.--,--.--,0.0,0.0,57.9,-1.9,-1.2,0.0,--.--,--.--,--.--,0,0,0.0,0.0,0.0,0,0,0,--.--,--.--,--.--
2022-11-27 15:14:06.626,0.3,0.2,57,-0.0,0.1,-0.0,0.0,0.0,0.000,0.0,-0.1,443.9,-0.142,0.000,0.000,0.0,00:00:18,0.0,0,0,--.--,--.--,0,0000:54:17,0,1,1,15.55,-1.00,0,--.--,70,--.--,--:--:--,1,-15.55,15:14:06,11/27/22,--.--,--.--,--.--,--.--,--.--,--.--,--.--,--.--,--.--,--.--,--.--,--.--,0,0.000,0.000,0.000,0.000,0.000,0.000,0.000,0.000,0.000,0.000,0.000,0.000,true,true,true,true,true,true,true,false,true,true,false,false,0.00,0.03,0.00,0.00,0.00,0.00,0.11,0.26,31.3637897,34.8771150,36RXV 78531 71442,0.0,0.0,0.0,3,15,--.--,--.--,,--.--,--.--,--.--,0,0,--.--,--.--,0,0.2,0.1,0.2,-0.0,-0.0,-0.0,--.--,--.--,--.--,--.--,--.--,--.--,0.0,0.0,57.9,-1.9,-1.1,0.0,--.--,--.--,--.--,0,0,0.0,0.0,0.0,0,0,0,--.--,--.--,--.--
2022-11-27 15:14:07.627,0.3,0.2,57,0.0,0.0,-0.0,0.0,0.0,0.000,0.0,-0.1,443.9,-0.139,0.000,0.000,0.0,00:00:19,0.0,0,0,--.--,--.--,0,0000:54:17,0,1,1,15.55,-1.00,0,--.--,70,--.--,--:--:--,1,-15.55,15:14:07,11/27/22,--.--,--.--,--.--,--.--,--.--,--.--,--.--,--.--,--.--,--.--,--.--,--.--,0,0.000,0.000,0.000,0.000,0.000,0.000,0.000,0.000,0.000,0.000,0.000,0.000,true,true,true,true,true,true,true,false,true,true,false,false,0.00,0.03,0.00,0.00,0.00,0.00,0.11,0.26,31.3637902,34.8771152,36RXV 78531 71442,0.0,0.0,0.0,3,15,--.--,--.--,,--.--,--.--,--.--,0,0,--.--,--.--,0,0.2,0.1,0.2,-0.0,0.0,-0.0,--.--,--.--,--.--,--.--,--.--,--.--,0.0,0.0,57.9,-1.9,-1.0,0.0,--.--,--.--,--.--,0,0,0.0,0.0,0.0,0,0,0,--.--,--.--,--.--
2022-11-27 15:14:08.627,0.3,0.1,57,-0.0,-0.1,0.0,0.0,0.0,0.000,0.0,-0.1,443.9,-0.154,0.000,0.000,0.0,00:00:19,0.0,0,0,--.--,--.--,0,0000:54:17,0,1,1,15.94,-1.00,0,--.--,88,--.--,--:--:--,1,-15.94,15:14:08,11/27/22,--.--,--.--,--.--,--.--,--.--,--.--,--.--,--.--,--.--,--.--,--.--,--.--,0,0.000,0.000,0.000,0.000,0.000,0.000,0.000,0.000,0.000,0.000,0.000,0.000,true,true,true,true,true,true,true,false,true,true,false,false,0.00,0.03,0.01,0.00,0.00,0.00,0.09,0.24,31.3637904,34.8771127,36RXV 78531 71442,0.0,0.0,0.0,3,15,--.--,--.--,,--.--,--.--,--.--,0,0,--.--,--.--,0,0.2,0.1,0.2,0.0,-0.0,-0.0,--.--,--.--,--.--,--.--,--.--,--.--,0.0,0.0,57.9,-1.8,-1.0,0.0,--.--,--.--,--.--,0,0,0.0,0.0,0.0,0,0,0,--.--,--.--,--.--
2022-11-27 15:14:09.635,0.3,0.1,57,-0.0,-0.0,0.0,0.0,0.0,0.000,0.0,-0.1,443.9,-0.164,0.000,0.000,0.0,00:00:19,0.0,0,0,--.--,--.--,0,0000:54:17,0,1,1,15.94,-1.00,0,--.--,88,--.--,--:--:--,1,-15.94,15:14:09,11/27/22,--.--,--.--,--.--,--.--,--.--,--.--,--.--,--.--,--.--,--.--,--.--,--.--,0,0.000,0.000,0.000,0.000,0.000,0.000,0.000,0.000,0.000,0.000,0.000,0.000,true,true,true,true,true,true,true,false,true,true,false,false,0.00,0.03,0.01,0.00,0.00,0.00,0.09,0.24,31.3637913,34.8771126,36RXV 78531 71442,0.0,0.0,0.0,3,15,--.--,--.--,,--.--,--.--,--.--,0,0,--.--,--.--,0,0.2,0.1,0.2,0.0,0.0,-0.0,--.--,--.--,--.--,--.--,--.--,--.--,0.0,0.0,57.9,-1.8,-0.9,0.0,--.--,--.--,--.--,0,0,0.0,0.0,0.0,0,0,0,--.--,--.--,--.--
2022-11-27 15:14:10.626,0.3,0.1,57,-0.0,-0.0,0.0,0.0,0.0,0.000,0.0,-0.2,443.9,-0.172,0.000,0.000,0.0,00:00:19,0.0,0,0,--.--,--.--,0,0000:54:17,0,1,1,16.16,-1.00,0,--.--,98,--.--,--:--:--,1,-16.16,15:14:10,11/27/22,--.--,--.--,--.--,--.--,--.--,--.--,--.--,--.--,--.--,--.--,--.--,--.--,0,0.000,0.000,0.000,0.000,0.000,0.000,0.000,0.000,0.000,0.000,0.000,0.000,true,true,true,true,true,true,true,false,true,true,false,false,0.00,0.05,0.00,0.00,0.00,0.00,0.08,0.22,31.3637910,34.8771128,36RXV 78531 71442,0.0,0.0,0.0,3,15,--.--,--.--,,--.--,--.--,--.--,0,0,--.--,--.--,0,0.2,0.1,0.2,0.0,0.0,-0.0,--.--,--.--,--.--,--.--,--.--,--.--,0.0,0.0,57.9,-1.8,-0.9,0.0,--.--,--.--,--.--,0,0,0.0,0.0,0.0,0,0,0,--.--,--.--,--.--
2022-11-27 15:14:11.626,0.3,0.1,57,-0.0,-0.0,0.1,0.0,0.0,0.000,-0.0,-0.2,443.9,-0.178,0.000,0.000,0.0,00:00:19,0.0,0,0,--.--,--.--,0,0000:54:17,0,1,1,16.16,-1.00,0,--.--,98,--.--,--:--:--,1,-16.16,15:14:11,11/27/22,--.--,--.--,--.--,--.--,--.--,--.--,--.--,--.--,--.--,--.--,--.--,--.--,0,0.000,0.000,0.000,0.000,0.000,0.000,0.000,0.000,0.000,0.000,0.000,0.000,true,true,true,true,true,true,true,false,true,true,false,false,0.00,0.05,0.00,0.00,0.00,0.00,0.08,0.22,31.3637899,34.8771151,36RXV 78531 71442,0.0,0.0,0.0,3,15,--.--,--.--,,--.--,--.--,--.--,0,0,--.--,--.--,0,0.2,0.1,0.2,0.0,0.0,0.0,--.--,--.--,--.--,--.--,--.--,--.--,0.0,0.0,57.9,-1.8,-0.9,0.0,--.--,--.--,--.--,0,0,0.0,0.0,0.0,0,0,0,--.--,--.--,--.--
2022-11-27 15:14:12.629,0.3,0.1,57,-0.0,0.1,-0.0,0.0,0.0,0.000,-0.0,-0.2,443.9,-0.183,0.000,0.000,0.0,00:00:19,0.0,0,0,--.--,--.--,0,0000:54:17,0,1,1,16.20,-1.00,0,--.--,100,--.--,--:--:--,1,-16.20,15:14:12,11/27/22,--.--,--.--,--.--,--.--,--.--,--.--,--.--,--.--,--.--,--.--,--.--,--.--,0,0.000,0.000,0.000,0.000,0.000,0.000,0.000,0.000,0.000,0.000,0.000,0.000,true,true,true,true,true,true,true,false,true,true,false,false,0.00,0.06,0.00,0.00,0.00,0.00,0.07,0.20,31.3637896,34.8771166,36RXV 78531 71442,0.0,0.0,0.0,3,15,--.--,--.--,,--.--,--.--,--.--,0,0,--.--,--.--,0,0.2,0.1,0.2,0.0,0.0,0.0,--.--,--.--,--.--,--.--,--.--,--.--,0.0,0.0,57.9,-1.9,-0.9,0.0,--.--,--.--,--.--,0,0,0.0,0.0,0.0,0,0,0,--.--,--.--,--.--
2022-11-27 15:14:13.627,0.3,0.1,57,0.0,-0.0,0.1,0.0,0.0,0.000,-0.0,-0.2,443.9,-0.186,0.000,0.000,0.0,00:00:19,0.0,0,0,--.--,--.--,0,0000:54:17,0,1,1,16.20,-1.00,0,--.--,100,--.--,--:--:--,1,-16.20,15:14:13,11/27/22,--.--,--.--,--.--,--.--,--.--,--.--,--.--,--.--,--.--,--.--,--.--,--.--,0,0.000,0.000,0.000,0.000,0.000,0.000,0.000,0.000,0.000,0.000,0.000,0.000,true,true,true,true,true,true,true,false,true,true,false,false,0.00,0.06,0.00,0.00,0.00,0.00,0.07,0.20,31.3637900,34.8771134,36RXV 78531 71442,0.0,0.0,0.0,3,15,--.--,--.--,,--.--,--.--,--.--,0,0,--.--,--.--,0,0.2,0.1,0.2,0.0,0.0,0.0,--.--,--.--,--.--,--.--,--.--,--.--,0.0,0.0,57.9,-1.9,-0.9,-0.0,--.--,--.--,--.--,0,0,0.0,0.0,0.0,0,0,0,--.--,--.--,--.--
2022-11-27 15:14:14.628,0.3,0.1,57,0.0,-0.0,0.0,0.0,0.0,0.000,-0.0,-0.2,443.9,-0.189,0.000,0.000,0.0,00:00:19,0.0,0,0,--.--,--.--,0,0000:54:17,0,1,1,16.20,-1.00,0,--.--,100,--.--,--:--:--,1,-16.20,15:14:14,11/27/22,--.--,--.--,--.--,--.--,--.--,--.--,--.--,--.--,--.--,--.--,--.--,--.--,0,0.000,0.000,0.000,0.000,0.000,0.000,0.000,0.000,0.000,0.000,0.000,0.000,true,true,true,true,true,true,true,false,true,true,false,false,0.00,0.05,0.00,0.00,0.00,0.00,0.06,0.19,31.3637891,34.8771154,36RXV 78531 71442,0.0,0.0,0.0,3,15,--.--,--.--,,--.--,--.--,--.--,0,0,--.--,--.--,0,0.2,0.1,0.3,-0.0,0.0,0.0,--.--,--.--,--.--,--.--,--.--,--.--,0.0,0.0,57.9,-1.9,-0.9,0.0,--.--,--.--,--.--,0,0,0.0,0.0,0.0,0,0,0,--.--,--.--,--.--
2022-11-27 15:14:15.635,0.3,0.1,57,-0.0,0.0,-0.0,0.0,0.0,0.000,-0.0,-0.2,443.9,-0.191,0.000,0.000,0.0,00:00:19,0.0,0,0,--.--,--.--,0,0000:54:17,0,1,1,16.20,-1.00,0,--.--,100,--.--,--:--:--,1,-16.20,15:14:15,11/27/22,--.--,--.--,--.--,--.--,--.--,--.--,--.--,--.--,--.--,--.--,--.--,--.--,0,0.000,0.000,0.000,0.000,0.000,0.000,0.000,0.000,0.000,0.000,0.000,0.000,true,true,true,true,true,true,true,false,true,true,false,false,0.00,0.05,0.00,0.00,0.00,0.00,0.06,0.19,31.3637904,34.8771154,36RXV 78531 71442,0.0,0.0,0.0,3,15,--.--,--.--,,--.--,--.--,--.--,0,0,--.--,--.--,0,0.2,0.1,0.3,0.0,0.0,0.0,--.--,--.--,--.--,--.--,--.--,--.--,0.0,0.0,57.9,-1.9,-0.9,0.0,--.--,--.--,--.--,0,0,0.0,0.0,0.0,0,0,0,--.--,--.--,--.--
2022-11-27 15:14:16.626,0.3,0.1,57,0.0,0.0,-0.0,0.0,0.0,0.000,-0.0,-0.2,443.9,-0.193,0.000,0.000,0.0,00:00:19,0.0,0,0,--.--,--.--,0,0000:54:17,0,1,1,16.20,-1.00,0,--.--,100,--.--,--:--:--,1,-16.20,15:14:16,11/27/22,--.--,--.--,--.--,--.--,--.--,--.--,--.--,--.--,--.--,--.--,--.--,--.--,0,0.000,0.000,0.000,0.000,0.000,0.000,0.000,0.000,0.000,0.000,0.000,0.000,true,true,true,true,true,true,true,false,true,true,false,false,0.00,0.01,0.00,0.00,0.00,0.00,0.06,0.18,31.3637904,34.8771141,36RXV 78531 71442,0.0,0.0,0.0,3,15,--.--,--.--,,--.--,--.--,--.--,0,0,--.--,--.--,0,0.2,0.1,0.3,0.0,0.0,0.0,--.--,--.--,--.--,--.--,--.--,--.--,0.0,0.0,57.9,-1.9,-0.9,0.0,--.--,--.--,--.--,0,0,0.0,0.0,0.0,0,0,0,--.--,--.--,--.--
2022-11-27 15:14:17.626,0.3,0.1,57,0.0,0.0,-0.0,0.0,0.0,0.000,-0.0,-0.2,443.9,-0.194,0.000,0.000,0.0,00:00:19,0.0,0,0,--.--,--.--,0,0000:54:17,0,1,1,16.20,-1.00,0,--.--,100,--.--,--:--:--,1,-16.20,15:14:17,11/27/22,--.--,--.--,--.--,--.--,--.--,--.--,--.--,--.--,--.--,--.--,--.--,--.--,0,0.000,0.000,0.000,0.000,0.000,0.000,0.000,0.000,0.000,0.000,0.000,0.000,true,true,true,true,true,true,true,false,true,true,false,false,0.00,0.01,0.00,0.00,0.00,0.00,0.06,0.18,31.3637887,34.8771146,36RXV 78531 71442,0.0,0.0,0.0,3,15,--.--,--.--,,--.--,--.--,--.--,0,0,--.--,--.--,0,0.2,0.1,0.3,0.0,0.0,0.0,--.--,--.--,--.--,--.--,--.--,--.--,0.0,0.0,57.9,-1.9,-0.8,0.0,--.--,--.--,--.--,0,0,0.0,0.0,0.0,0,0,0,--.--,--.--,--.--
2022-11-27 15:14:18.626,0.3,0.1,57,0.0,0.0,-0.0,0.0,0.0,0.000,-0.0,-0.2,443.9,-0.196,0.000,0.000,0.0,00:00:19,0.0,0,0,--.--,--.--,0,0000:54:17,0,1,1,16.20,-1.00,0,--.--,100,--.--,--:--:--,1,-16.20,15:14:18,11/27/22,--.--,--.--,--.--,--.--,--.--,--.--,--.--,--.--,--.--,--.--,--.--,--.--,0,0.000,0.000,0.000,0.000,0.000,0.000,0.000,0.000,0.000,0.000,0.000,0.000,true,true,true,true,true,true,true,false,true,true,false,false,0.00,0.06,0.00,0.00,0.00,0.00,0.06,0.17,31.3637903,34.8771156,36RXV 78531 71442,0.0,0.0,0.0,3,15,--.--,--.--,,--.--,--.--,--.--,0,0,--.--,--.--,0,0.2,0.1,0.3,0.0,0.0,0.0,--.--,--.--,--.--,--.--,--.--,--.--,0.0,0.0,57.9,-1.9,-0.9,0.0,--.--,--.--,--.--,0,0,0.0,0.0,0.0,0,0,0,--.--,--.--,--.--
2022-11-27 15:14:19.626,0.3,0.1,57,-0.0,0.0,0.0,0.0,0.0,0.000,-0.0,-0.2,443.9,-0.197,0.000,0.000,0.0,00:00:19,0.0,0,0,--.--,--.--,0,0000:54:17,0,1,1,16.20,-1.00,0,--.--,100,--.--,--:--:--,1,-16.20,15:14:19,11/27/22,--.--,--.--,--.--,--.--,--.--,--.--,--.--,--.--,--.--,--.--,--.--,--.--,0,0.000,0.000,0.000,0.000,0.000,0.000,0.000,0.000,0.000,0.000,0.000,0.000,true,true,true,true,true,true,true,false,true,true,false,false,0.00,0.06,0.00,0.00,0.00,0.00,0.06,0.17,31.3637893,34.8771149,36RXV 78531 71442,0.0,0.0,0.0,3,15,--.--,--.--,,--.--,--.--,--.--,0,0,--.--,--.--,0,0.2,0.1,0.3,0.0,0.0,0.0,--.--,--.--,--.--,--.--,--.--,--.--,0.0,0.0,57.9,-1.9,-0.9,0.0,--.--,--.--,--.--,0,0,0.0,0.0,0.0,0,0,0,--.--,--.--,--.--
2022-11-27 15:14:20.634,0.3,0.1,57,-0.0,-0.1,-0.1,0.0,0.0,0.000,-0.0,-0.2,443.9,-0.198,0.000,0.000,0.0,00:00:19,0.0,0,0,--.--,--.--,0,0000:54:17,0,1,1,16.20,-1.00,0,--.--,100,--.--,--:--:--,1,-16.20,15:14:20,11/27/22,--.--,--.--,--.--,--.--,--.--,--.--,--.--,--.--,--.--,--.--,--.--,--.--,0,0.000,0.000,0.000,0.000,0.000,0.000,0.000,0.000,0.000,0.000,0.000,0.000,true,true,true,true,true,true,true,false,true,true,false,false,0.00,0.05,0.00,0.00,0.00,0.00,0.05,0.16,31.3637912,34.8771142,36RXV 78531 71442,0.0,0.0,0.0,3,15,--.--,--.--,,--.--,--.--,--.--,0,0,--.--,--.--,0,0.2,0.1,0.3,-0.0,0.0,0.0,--.--,--.--,--.--,--.--,--.--,--.--,0.0,0.0,57.9,-1.9,-0.9,0.0,--.--,--.--,--.--,0,0,0.0,0.0,0.0,0,0,0,--.--,--.--,--.--
2022-11-27 15:14:21.626,0.3,0.1,57,-0.0,-0.0,-0.1,0.0,0.0,0.000,-0.0,-0.2,443.9,-0.199,0.000,0.000,0.0,00:00:19,0.0,0,0,--.--,--.--,0,0000:54:17,0,1,1,16.20,-1.00,0,--.--,100,--.--,--:--:--,1,-16.20,15:14:21,11/27/22,--.--,--.--,--.--,--.--,--.--,--.--,--.--,--.--,--.--,--.--,--.--,--.--,0,0.000,0.000,0.000,0.000,0.000,0.000,0.000,0.000,0.000,0.000,0.000,0.000,true,true,true,true,true,true,true,false,true,true,false,false,0.00,0.05,0.00,0.00,0.00,0.00,0.05,0.16,31.3637895,34.8771139,36RXV 78531 71442,0.0,0.0,0.0,3,15,--.--,--.--,,--.--,--.--,--.--,0,0,--.--,--.--,0,0.2,0.1,0.3,0.0,0.0,0.0,--.--,--.--,--.--,--.--,--.--,--.--,0.0,0.0,57.9,-1.8,-0.9,0.0,--.--,--.--,--.--,0,0,0.0,0.0,0.0,0,0,0,--.--,--.--,--.--
2022-11-27 15:14:22.630,0.3,0.1,57,0.0,0.0,-0.0,0.0,0.0,0.000,-0.0,-0.2,443.9,-0.200,0.000,0.000,0.0,00:00:19,0.0,0,0,--.--,--.--,0,0000:54:17,0,1,1,16.20,-1.00,0,--.--,100,--.--,--:--:--,1,-16.20,15:14:22,11/27/22,--.--,--.--,--.--,--.--,--.--,--.--,--.--,--.--,--.--,--.--,--.--,--.--,0,0.000,0.000,0.000,0.000,0.000,0.000,0.000,0.000,0.000,0.000,0.000,0.000,true,true,true,true,true,true,true,false,true,true,false,false,0.00,0.04,0.00,0.00,0.00,0.00,0.05,0.16,31.3637909,34.8771140,36RXV 78531 71442,0.0,0.0,0.0,3,15,--.--,--.--,,--.--,--.--,--.--,0,0,--.--,--.--,0,0.2,0.1,0.3,0.0,0.0,0.0,--.--,--.--,--.--,--.--,--.--,--.--,0.0,0.0,57.9,-1.9,-0.9,0.0,--.--,--.--,--.--,0,0,0.0,0.0,0.0,0,0,0,--.--,--.--,--.--
2022-11-27 15:14:23.631,0.3,0.1,57,0.0,0.0,-0.0,0.0,0.0,0.000,0.0,-0.2,443.9,-0.201,0.000,0.000,0.0,00:00:19,0.0,0,0,--.--,--.--,0,0000:54:17,0,1,1,16.20,-1.00,0,--.--,100,--.--,--:--:--,1,-16.20,15:14:23,11/27/22,--.--,--.--,--.--,--.--,--.--,--.--,--.--,--.--,--.--,--.--,--.--,--.--,0,0.000,0.000,0.000,0.000,0.000,0.000,0.000,0.000,0.000,0.000,0.000,0.000,true,true,true,true,true,true,true,false,true,true,false,false,0.00,0.04,0.00,0.00,0.00,0.00,0.05,0.16,31.3637910,34.8771129,36RXV 78531 71442,0.0,0.0,0.0,3,15,--.--,--.--,,--.--,--.--,--.--,0,0,--.--,--.--,0,0.2,0.1,0.3,0.0,-0.0,-0.0,--.--,--.--,--.--,--.--,--.--,--.--,0.0,0.0,57.9,-1.9,-0.9,0.0,--.--,--.--,--.--,0,0,0.0,0.0,0.0,0,0,0,--.--,--.--,--.--
2022-11-27 15:14:24.626,0.3,0.1,57,0.0,0.0,0.0,0.0,0.0,0.000,-0.0,-0.2,443.9,-0.202,0.000,0.000,0.0,00:00:19,0.0,0,0,--.--,--.--,0,0000:54:17,0,1,1,16.20,-1.00,0,--.--,100,--.--,--:--:--,1,-16.20,15:14:24,11/27/22,--.--,--.--,--.--,--.--,--.--,--.--,--.--,--.--,--.--,--.--,--.--,--.--,0,0.000,0.000,0.000,0.000,0.000,0.000,0.000,0.000,0.000,0.000,0.000,0.000,true,true,true,true,true,true,true,false,true,true,false,false,0.00,0.06,0.00,0.00,0.00,0.00,0.05,0.15,31.3637915,34.8771136,36RXV 78531 71442,0.0,0.0,0.0,3,15,--.--,--.--,,--.--,--.--,--.--,0,0,--.--,--.--,0,0.2,0.1,0.3,0.0,-0.0,0.0,--.--,--.--,--.--,--.--,--.--,--.--,0.0,0.0,57.9,-1.8,-0.9,0.0,--.--,--.--,--.--,0,0,0.0,0.0,0.0,0,0,0,--.--,--.--,--.--
2022-11-27 15:14:25.626,0.3,0.1,57,0.0,0.0,0.0,0.0,0.0,0.000,0.0,-0.2,443.9,-0.203,0.000,0.000,0.0,00:00:19,0.0,0,0,--.--,--.--,0,0000:54:17,0,1,1,16.20,-1.00,0,--.--,100,--.--,--:--:--,1,-16.20,15:14:25,11/27/22,--.--,--.--,--.--,--.--,--.--,--.--,--.--,--.--,--.--,--.--,--.--,--.--,0,0.000,0.000,0.000,0.000,0.000,0.000,0.000,0.000,0.000,0.000,0.000,0.000,true,true,true,true,true,true,true,false,true,true,false,false,0.00,0.06,0.00,0.00,0.00,0.00,0.05,0.15,31.3637912,34.8771147,36RXV 78531 71442,0.0,0.0,0.0,3,15,--.--,--.--,,--.--,--.--,--.--,0,0,--.--,--.--,0,0.2,0.1,0.3,0.0,-0.0,-0.0,--.--,--.--,--.--,--.--,--.--,--.--,0.0,0.0,57.9,-1.8,-0.9,0.0,--.--,--.--,--.--,0,0,0.0,0.0,0.0,0,0,0,--.--,--.--,--.--
2022-11-27 15:14:26.626,0.3,0.1,57,0.0,0.1,0.1,0.0,0.0,0.000,-0.0,-0.2,443.9,-0.204,0.000,0.000,0.0,00:00:19,0.0,0,0,--.--,52518.0,0,0000:54:17,0,1,1,16.20,-1.00,0,--.--,100,--.--,--:--:--,1,-16.20,15:14:26,11/27/22,--.--,--.--,--.--,--.--,--.--,--.--,--.--,--.--,--.--,--.--,--.--,--.--,0,0.000,0.000,0.000,0.000,0.000,0.000,0.000,0.000,0.000,0.000,0.000,0.000,true,true,true,true,true,true,true,false,true,true,false,false,0.00,0.03,0.00,0.00,0.00,0.00,0.05,0.15,31.3637899,34.8771148,36RXV 78531 71442,0.0,0.0,0.0,3,15,--.--,--.--,,--.--,--.--,--.--,0,0,--.--,--.--,0,0.2,0.1,0.3,0.0,-0.0,0.0,--.--,--.--,--.--,--.--,--.--,--.--,0.0,0.0,57.9,-1.9,-0.9,0.0,--.--,--.--,--.--,0,0,0.0,0.0,0.0,0,0,0,--.--,--.--,--.--
2022-11-27 15:14:27.632,0.3,0.1,57,-0.1,-0.0,-0.0,0.0,0.0,0.000,0.0,-0.2,443.9,-0.205,0.000,0.000,0.0,00:00:19,0.0,0,0,--.--,52518.0,0,0000:54:17,0,1,1,16.20,-1.00,0,--.--,100,--.--,--:--:--,1,-16.20,15:14:27,11/27/22,--.--,--.--,--.--,--.--,--.--,--.--,--.--,--.--,--.--,--.--,--.--,--.--,0,0.000,0.000,0.000,0.000,0.000,0.000,0.000,0.000,0.000,0.000,0.000,0.000,true,true,true,true,true,true,true,false,true,true,false,false,0.00,0.03,0.00,0.00,0.00,0.00,0.05,0.15,31.3637915,34.8771141,36RXV 78531 71442,0.0,0.0,0.0,3,15,--.--,--.--,,--.--,--.--,--.--,0,0,--.--,--.--,0,0.2,0.1,0.3,-0.0,-0.0,-0.0,--.--,--.--,--.--,--.--,--.--,--.--,0.0,0.0,57.9,-1.9,-0.9,0.0,--.--,--.--,--.--,0,0,0.0,0.0,0.0,0,0,0,--.--,--.--,--.--
2022-11-27 15:14:28.626,0.3,0.1,57,0.0,-0.0,-0.0,0.0,0.0,0.000,-0.0,-0.2,443.9,-0.206,0.000,0.000,0.0,00:00:19,0.0,0,0,--.--,52518.0,0,0000:54:17,0,1,1,16.20,-1.00,0,--.--,100,--.--,--:--:--,1,-16.20,15:14:28,11/27/22,--.--,--.--,--.--,--.--,--.--,--.--,--.--,--.--,--.--,--.--,--.--,--.--,0,0.000,0.000,0.000,0.000,0.000,0.000,0.000,0.000,0.000,0.000,0.000,0.000,true,true,true,true,true,true,true,false,true,true,false,false,0.00,0.02,0.00,0.00,0.00,0.00,0.04,0.14,31.3637895,34.8771136,36RXV 78531 71442,0.0,0.0,0.0,3,15,--.--,--.--,,--.--,--.--,--.--,0,0,--.--,--.--,0,0.2,0.1,0.3,-0.0,-0.0,0.0,--.--,--.--,--.--,--.--,--.--,--.--,0.0,0.0,57.9,-1.9,-1.0,0.0,--.--,--.--,--.--,0,0,0.0,0.0,0.0,0,0,0,--.--,--.--,--.--
2022-11-27 15:14:29.628,0.3,0.1,57,0.1,-0.0,-0.0,0.0,0.0,0.000,-0.0,-0.2,443.9,-0.207,0.000,0.000,0.0,00:00:19,0.0,0,0,--.--,52518.0,0,0000:54:17,0,1,1,16.20,-1.00,0,--.--,100,--.--,--:--:--,1,-16.20,15:14:29,11/27/22,--.--,--.--,--.--,--.--,--.--,--.--,--.--,--.--,--.--,--.--,--.--,--.--,0,0.000,0.000,0.000,0.000,0.000,0.000,0.000,0.000,0.000,0.000,0.000,0.000,true,true,true,true,true,true,true,false,true,true,false,false,0.00,0.02,0.00,0.00,0.00,0.00,0.04,0.14,31.3637906,34.8771146,36RXV 78531 71442,0.0,0.0,0.0,3,15,--.--,--.--,,--.--,--.--,--.--,0,0,--.--,--.--,0,0.2,0.1,0.3,-0.0,-0.0,0.0,--.--,--.--,--.--,--.--,--.--,--.--,0.0,0.0,57.9,-1.9,-1.0,0.0,--.--,--.--,--.--,0,0,0.0,0.0,0.0,0,0,0,--.--,--.--,--.--
2022-11-27 15:14:30.626,0.3,0.1,57,-0.0,0.0,-0.0,0.0,0.0,0.000,0.0,-0.2,443.9,-0.208,0.000,0.000,0.0,00:00:19,0.0,0,0,--.--,52518.0,0,0000:54:17,0,1,1,16.20,-1.00,0,--.--,100,--.--,--:--:--,1,-16.20,15:14:30,11/27/22,--.--,--.--,--.--,--.--,--.--,--.--,--.--,--.--,--.--,--.--,--.--,--.--,0,0.000,0.000,0.000,0.000,0.000,0.000,0.000,0.000,0.000,0.000,0.000,0.000,true,true,true,true,true,true,true,false,true,true,false,false,0.00,0.06,0.00,0.00,0.00,0.00,0.04,0.14,31.3637891,34.8771124,36RXV 78531 71442,0.0,0.0,0.0,3,15,--.--,--.--,,--.--,--.--,--.--,0,0,--.--,--.--,0,0.2,0.1,0.3,-0.0,0.0,-0.0,--.--,--.--,--.--,--.--,--.--,--.--,0.0,0.0,57.9,-1.9,-0.9,0.0,--.--,--.--,--.--,0,0,0.0,0.0,0.0,0,0,0,--.--,--.--,--.--
2022-11-27 15:14:31.630,0.3,0.1,57,0.1,-0.1,-0.0,0.0,0.0,0.000,-0.0,-0.2,443.9,-0.208,0.000,0.000,0.0,00:00:19,0.0,0,0,--.--,52518.0,0,0000:54:17,0,1,1,16.20,-1.00,0,--.--,100,--.--,--:--:--,1,-16.20,15:14:31,11/27/22,--.--,--.--,--.--,--.--,--.--,--.--,--.--,--.--,--.--,--.--,--.--,--.--,0,0.000,0.000,0.000,0.000,0.000,0.000,0.000,0.000,0.000,0.000,0.000,0.000,true,true,true,true,true,true,true,false,true,true,false,false,0.00,0.06,0.00,0.00,0.00,0.00,0.04,0.14,31.3637898,34.8771130,36RXV 78531 71442,0.0,0.0,0.0,3,15,--.--,--.--,,--.--,--.--,--.--,0,0,--.--,--.--,0,0.2,0.1,0.3,0.0,0.0,-0.0,--.--,--.--,--.--,--.--,--.--,--.--,0.0,0.0,57.9,-1.9,-0.9,0.0,--.--,--.--,--.--,0,0,0.0,0.0,0.0,0,0,0,--.--,--.--,--.--
2022-11-27 15:14:32.626,0.3,0.1,57,0.1,0.0,0.0,0.0,0.0,0.000,0.0,-0.2,443.9,-0.208,0.000,0.000,0.0,00:00:19,0.0,0,0,--.--,52518.0,0,0000:54:17,0,1,1,16.20,-1.00,0,--.--,100,--.--,--:--:--,1,-16.20,15:14:32,11/27/22,--.--,--.--,--.--,--.--,--.--,--.--,--.--,--.--,--.--,--.--,--.--,--.--,0,0.000,0.000,0.000,0.000,0.000,0.000,0.000,0.000,0.000,0.000,0.000,0.000,true,true,true,true,true,true,true,false,true,true,false,false,0.00,0.03,0.00,0.00,0.00,0.00,0.04,0.13,31.3637902,34.8771147,36RXV 78531 71442,0.0,0.0,0.0,3,15,--.--,--.--,,--.--,--.--,--.--,0,0,--.--,--.--,0,0.2,0.1,0.3,0.0,0.0,-0.0,--.--,--.--,--.--,--.--,--.--,--.--,0.0,0.0,57.9,-1.9,-0.9,0.0,--.--,--.--,--.--,0,0,0.0,0.0,0.0,0,0,0,--.--,--.--,--.--
2022-11-27 15:14:33.627,0.3,0.1,57,0.1,-0.0,0.0,0.0,0.0,0.000,0.0,-0.2,443.9,-0.209,0.000,0.000,0.0,00:00:19,0.0,0,0,--.--,52518.0,0,0000:54:17,0,1,1,16.20,-1.00,0,--.--,100,--.--,--:--:--,1,-16.20,15:14:33,11/27/22,--.--,--.--,--.--,--.--,--.--,--.--,--.--,--.--,--.--,--.--,--.--,--.--,0,0.000,0.000,0.000,0.000,0.000,0.000,0.000,0.000,0.000,0.000,0.000,0.000,true,true,true,true,true,true,true,false,true,true,false,false,0.00,0.03,0.00,0.00,0.00,0.00,0.04,0.13,31.3637914,34.8771125,36RXV 78531 71442,0.0,0.0,0.0,3,15,--.--,--.--,,--.--,--.--,--.--,0,0,--.--,--.--,0,0.2,0.1,0.3,-0.0,0.0,-0.0,--.--,--.--,--.--,--.--,--.--,--.--,0.0,0.0,57.9,-1.9,-0.9,0.0,--.--,--.--,--.--,0,0,0.0,0.0,0.0,0,0,0,--.--,--.--,--.--
2022-11-27 15:14:34.626,0.3,0.1,57,0.1,0.0,-0.0,0.0,0.0,0.000,-0.0,-0.2,443.9,-0.210,0.000,0.000,0.0,00:00:19,0.0,0,0,--.--,52518.0,0,0000:54:17,0,1,1,16.20,-1.00,0,--.--,100,--.--,--:--:--,1,-16.20,15:14:34,11/27/22,--.--,--.--,--.--,--.--,--.--,--.--,--.--,--.--,--.--,--.--,--.--,--.--,0,0.000,0.000,0.000,0.000,0.000,0.000,0.000,0.000,0.000,0.000,0.000,0.000,true,true,true,true,true,true,true,false,true,true,false,false,0.00,0.03,0.00,0.00,0.00,0.00,0.04,0.13,31.3637907,34.8771136,36RXV 78531 71442,0.0,0.0,0.0,3,15,--.--,--.--,,--.--,--.--,--.--,0,0,--.--,--.--,0,0.2,0.1,0.3,-0.0,0.0,0.0,--.--,--.--,--.--,--.--,--.--,--.--,0.0,0.0,57.9,-1.9,-0.9,0.0,--.--,--.--,--.--,0,0,0.0,0.0,0.0,0,0,0,--.--,--.--,--.--
2022-11-27 15:14:35.626,0.3,0.1,57,-0.0,-0.0,0.0,0.0,0.0,0.000,-0.0,-0.2,443.9,-0.210,0.000,0.000,0.0,00:00:19,0.0,0,0,--.--,52518.0,0,0000:54:17,0,1,1,16.20,-1.00,0,--.--,100,--.--,--:--:--,1,-16.20,15:14:35,11/27/22,--.--,--.--,--.--,--.--,--.--,--.--,--.--,--.--,--.--,--.--,--.--,--.--,0,0.000,0.000,0.000,0.000,0.000,0.000,0.000,0.000,0.000,0.000,0.000,0.000,true,true,true,true,true,true,true,false,true,true,false,false,0.00,0.03,0.00,0.00,0.00,0.00,0.04,0.13,31.3637898,34.8771116,36RXV 78531 71442,0.0,0.0,0.0,3,15,--.--,--.--,,--.--,--.--,--.--,0,0,--.--,--.--,0,0.2,0.1,0.3,-0.0,0.0,0.0,--.--,--.--,--.--,--.--,--.--,--.--,0.0,0.0,57.9,-1.9,-0.9,0.0,--.--,--.--,--.--,0,0,0.0,0.0,0.0,0,0,0,--.--,--.--,--.--
2022-11-27 15:14:36.627,0.3,0.1,57,-0.0,0.0,-0.0,0.0,0.0,0.000,-0.0,-0.2,443.9,-0.211,0.000,0.000,0.0,00:00:19,0.0,0,0,--.--,52518.0,0,0000:54:17,0,1,1,16.20,-1.00,0,--.--,100,--.--,--:--:--,1,-16.20,15:14:36,11/27/22,--.--,--.--,--.--,--.--,--.--,--.--,--.--,--.--,--.--,--.--,--.--,--.--,0,0.000,0.000,0.000,0.000,0.000,0.000,0.000,0.000,0.000,0.000,0.000,0.000,true,true,true,true,true,true,true,false,true,true,false,false,0.00,0.04,0.00,0.00,0.00,0.00,0.04,0.13,31.3637891,34.8771149,36RXV 78531 71442,0.0,0.0,0.0,3,15,--.--,--.--,,--.--,--.--,--.--,0,0,--.--,--.--,0,0.2,0.1,0.3,-0.0,-0.0,-0.0,--.--,--.--,--.--,--.--,--.--,--.--,0.0,0.0,57.9,-1.9,-1.0,0.0,--.--,--.--,--.--,0,0,0.0,0.0,0.0,0,0,0,--.--,--.--,--.--
2022-11-27 15:14:37.626,0.3,0.1,57,-0.0,-0.0,0.0,0.0,0.0,0.000,0.0,-0.2,443.9,-0.211,0.000,0.000,0.0,00:00:19,0.0,0,0,--.--,52518.0,0,0000:54:17,0,1,1,16.20,-1.00,0,--.--,100,--.--,--:--:--,1,-16.20,15:14:37,11/27/22,--.--,--.--,--.--,--.--,--.--,--.--,--.--,--.--,--.--,--.--,--.--,--.--,0,0.000,0.000,0.000,0.000,0.000,0.000,0.000,0.000,0.000,0.000,0.000,0.000,true,true,true,true,true,true,true,false,true,true,false,false,0.00,0.04,0.00,0.00,0.00,0.00,0.04,0.13,31.3637913,34.8771136,36RXV 78531 71442,0.0,0.0,0.0,3,15,--.--,--.--,,--.--,--.--,--.--,0,0,--.--,--.--,0,0.2,0.1,0.3,-0.0,0.0,-0.0,--.--,--.--,--.--,--.--,--.--,--.--,0.0,0.0,57.9,-1.9,-1.0,0.0,--.--,--.--,--.--,0,0,0.0,0.0,0.0,0,0,0,--.--,--.--,--.--
2022-11-27 15:14:38.626,0.3,0.2,57,0.1,0.0,0.1,0.0,0.0,0.000,-0.0,-0.2,443.9,-0.212,0.000,0.000,0.0,00:00:19,0.0,0,0,--.--,52518.0,0,0000:54:17,0,1,1,16.20,-1.00,0,--.--,100,--.--,--:--:--,1,-16.20,15:14:38,11/27/22,--.--,--.--,--.--,--.--,--.--,--.--,--.--,--.--,--.--,--.--,--.--,--.--,0,0.000,0.000,0.000,0.000,0.000,0.000,0.000,0.000,0.000,0.000,0.000,0.000,true,true,true,true,true,true,true,false,true,true,false,false,0.00,0.02,0.00,0.00,0.00,0.00,0.04,0.12,31.3637900,34.8771135,36RXV 78531 71442,0.0,0.0,0.0,3,15,--.--,--.--,,--.--,--.--,--.--,0,0,--.--,--.--,0,0.2,0.1,0.3,-0.0,-0.0,0.0,--.--,--.--,--.--,--.--,--.--,--.--,0.0,0.0,57.9,-1.9,-1.0,-0.0,--.--,--.--,--.--,0,0,0.0,0.0,0.0,0,0,0,--.--,--.--,--.--
2022-11-27 15:14:39.626,0.3,0.2,57,-0.0,0.0,-0.0,0.0,0.0,0.000,0.0,-0.2,443.9,-0.213,0.000,0.000,0.0,00:00:19,0.0,0,0,--.--,52518.0,0,0000:54:17,0,1,1,16.20,-1.00,0,--.--,100,--.--,--:--:--,1,-16.20,15:14:39,11/27/22,--.--,--.--,--.--,--.--,--.--,--.--,--.--,--.--,--.--,--.--,--.--,--.--,0,0.000,0.000,0.000,0.000,0.000,0.000,0.000,0.000,0.000,0.000,0.000,0.000,true,true,true,true,true,true,true,false,true,true,false,false,0.00,0.02,0.00,0.00,0.00,0.00,0.04,0.12,31.3637911,34.8771142,36RXV 78531 71442,0.0,0.0,0.0,3,15,--.--,--.--,,--.--,--.--,--.--,0,0,--.--,--.--,0,0.2,0.1,0.3,-0.0,-0.0,-0.0,--.--,--.--,--.--,--.--,--.--,--.--,0.0,0.0,57.9,-1.9,-1.0,0.0,--.--,--.--,--.--,0,0,0.0,0.0,0.0,0,0,0,--.--,--.--,--.--
2022-11-27 15:14:40.632,0.3,0.2,57,-0.0,-0.0,0.1,0.0,0.0,0.000,0.0,-0.2,443.9,-0.214,0.000,0.000,0.0,00:00:19,0.0,0,0,--.--,52518.0,0,0000:54:17,0,1,1,16.20,-1.00,0,--.--,100,--.--,--:--:--,1,-16.20,15:14:40,11/27/22,--.--,--.--,--.--,--.--,--.--,--.--,--.--,--.--,--.--,--.--,--.--,--.--,0,0.000,0.000,0.000,0.000,0.000,0.000,0.000,0.000,0.000,0.000,0.000,0.000,true,true,true,true,true,true,true,false,true,true,false,false,0.00,0.13,0.00,0.00,0.00,0.00,0.04,0.12,31.3637893,34.8771173,36RXV 78531 71442,0.0,0.0,0.0,3,15,--.--,--.--,,--.--,--.--,--.--,0,0,--.--,--.--,0,0.2,0.1,0.3,-0.0,-0.0,-0.0,--.--,--.--,--.--,--.--,--.--,--.--,0.0,0.0,57.9,-1.9,-1.0,-0.0,--.--,--.--,--.--,0,0,0.0,0.0,0.0,0,0,0,--.--,--.--,--.--
2022-11-27 15:14:41.634,0.3,0.1,57,0.0,-0.0,-0.0,0.0,0.0,0.000,-0.0,-0.2,443.9,-0.214,0.000,0.000,0.0,00:00:19,0.0,0,0,--.--,52518.0,0,0000:54:17,0,1,1,16.20,-1.00,0,--.--,100,--.--,--:--:--,1,-16.20,15:14:41,11/27/22,--.--,--.--,--.--,--.--,--.--,--.--,--.--,--.--,--.--,--.--,--.--,--.--,0,0.000,0.000,0.000,0.000,0.000,0.000,0.000,0.000,0.000,0.000,0.000,0.000,true,true,true,true,true,true,true,false,true,true,false,false,0.00,0.13,0.00,0.00,0.00,0.00,0.04,0.12,31.3637908,34.8771152,36RXV 78531 71442,0.0,0.0,0.0,3,15,--.--,--.--,,--.--,--.--,--.--,0,0,--.--,--.--,0,0.2,0.1,0.3,-0.0,-0.0,0.0,--.--,--.--,--.--,--.--,--.--,--.--,0.0,0.0,57.9,-1.9,-1.0,-0.0,--.--,--.--,--.--,0,0,0.0,0.0,0.0,0,0,0,--.--,--.--,--.--
2022-11-27 15:14:42.626,0.3,0.1,57,-0.0,-0.0,0.0,0.0,0.0,0.000,-0.0,-0.2,443.9,-0.214,0.000,0.000,0.0,00:00:19,0.0,0,0,--.--,52518.0,0,0000:54:17,0,1,1,16.20,-1.00,0,--.--,100,--.--,--:--:--,1,-16.20,15:14:42,11/27/22,--.--,--.--,--.--,--.--,--.--,--.--,--.--,--.--,--.--,--.--,--.--,--.--,0,0.000,0.000,0.000,0.000,0.000,0.000,0.000,0.000,0.000,0.000,0.000,0.000,true,true,true,true,true,true,true,false,true,true,false,false,0.00,0.01,0.00,0.00,0.00,0.00,0.04,0.12,31.3637902,34.8771136,36RXV 78531 71442,0.0,0.0,0.0,3,15,--.--,--.--,,--.--,--.--,--.--,0,0,--.--,--.--,0,0.2,0.1,0.3,0.0,-0.0,-0.0,--.--,--.--,--.--,--.--,--.--,--.--,0.0,0.0,57.9,-1.9,-0.9,0.0,--.--,--.--,--.--,0,0,0.0,0.0,0.0,0,0,0,--.--,--.--,--.--
2022-11-27 15:14:43.630,0.3,0.1,57,0.0,0.0,0.1,0.0,0.0,0.000,-0.0,-0.2,443.9,-0.215,0.000,0.000,0.0,00:00:19,0.0,0,0,--.--,52518.0,0,0000:54:17,0,1,1,16.20,-1.00,0,--.--,100,--.--,--:--:--,1,-16.20,15:14:43,11/27/22,--.--,--.--,--.--,--.--,--.--,--.--,--.--,--.--,--.--,--.--,--.--,--.--,0,0.000,0.000,0.000,0.000,0.000,0.000,0.000,0.000,0.000,0.000,0.000,0.000,true,true,true,true,true,true,true,false,true,true,false,false,0.00,0.01,0.00,0.00,0.00,0.00,0.04,0.12,31.3637905,34.8771144,36RXV 78531 71442,0.0,0.0,0.0,3,15,--.--,--.--,,--.--,--.--,--.--,0,0,--.--,--.--,0,0.2,0.1,0.3,0.0,-0.0,0.0,--.--,--.--,--.--,--.--,--.--,--.--,0.0,0.0,57.9,-1.9,-0.9,0.0,--.--,--.--,--.--,0,0,0.0,0.0,0.0,0,0,0,--.--,--.--,--.--
2022-11-27 15:14:44.630,0.3,0.1,57,0.0,0.0,0.0,0.0,0.0,0.000,0.0,-0.2,443.9,-0.215,0.000,0.000,0.0,00:00:19,0.0,0,0,--.--,52518.0,0,0000:54:17,0,1,1,16.20,-1.00,0,--.--,100,--.--,--:--:--,1,-16.20,15:14:44,11/27/22,--.--,--.--,--.--,--.--,--.--,--.--,--.--,--.--,--.--,--.--,--.--,--.--,0,0.000,0.000,0.000,0.000,0.000,0.000,0.000,0.000,0.000,0.000,0.000,0.000,true,true,true,true,true,true,true,false,true,true,false,false,0.00,0.02,0.00,0.00,0.00,0.00,0.04,0.12,31.3637904,34.8771133,36RXV 78531 71442,0.0,0.0,0.0,3,15,--.--,--.--,,--.--,--.--,--.--,0,0,--.--,--.--,0,0.2,0.1,0.3,0.0,-0.0,0.0,--.--,--.--,--.--,--.--,--.--,--.--,0.0,0.0,57.9,-1.8,-0.9,0.0,--.--,--.--,--.--,0,0,0.0,0.0,0.0,0,0,0,--.--,--.--,--.--
2022-11-27 15:14:45.632,0.3,0.1,57,0.1,0.0,-0.0,0.0,0.0,0.000,0.0,-0.2,443.9,-0.215,0.000,0.000,0.0,00:00:19,0.0,0,0,--.--,52518.0,0,0000:54:17,0,1,1,16.20,-1.00,0,--.--,100,--.--,--:--:--,1,-16.20,15:14:45,11/27/22,--.--,--.--,--.--,--.--,--.--,--.--,--.--,--.--,--.--,--.--,--.--,--.--,0,0.000,0.000,0.000,0.000,0.000,0.000,0.000,0.000,0.000,0.000,0.000,0.000,true,true,true,true,true,true,true,false,true,true,false,false,0.00,0.02,0.00,0.00,0.00,0.00,0.04,0.12,31.3637895,34.8771144,36RXV 78531 71442,0.0,0.0,0.0,3,15,--.--,--.--,,--.--,--.--,--.--,0,0,--.--,--.--,0,0.2,0.1,0.3,0.0,0.0,-0.0,--.--,--.--,--.--,--.--,--.--,--.--,0.0,0.0,57.9,-1.9,-0.9,0.0,--.--,--.--,--.--,0,0,0.0,0.0,0.0,0,0,0,--.--,--.--,--.--
2022-11-27 15:14:46.636,0.3,0.1,57,-0.0,-0.0,-0.1,0.0,0.0,0.000,0.0,-0.2,443.9,-0.216,0.000,0.000,0.0,00:00:19,0.0,0,0,--.--,52518.0,0,0000:54:17,0,1,1,16.20,-1.00,0,--.--,100,--.--,--:--:--,1,-16.20,15:14:46,11/27/22,--.--,--.--,--.--,--.--,--.--,--.--,--.--,--.--,--.--,--.--,--.--,--.--,0,0.000,0.000,0.000,0.000,0.000,0.000,0.000,0.000,0.000,0.000,0.000,0.000,true,true,true,true,true,true,true,false,true,true,false,false,0.00,0.05,0.00,0.00,0.00,0.00,0.04,0.11,31.3637888,34.8771140,36RXV 78531 71442,0.0,0.0,0.0,3,15,--.--,--.--,,--.--,--.--,--.--,0,0,--.--,--.--,0,0.2,0.1,0.3,-0.0,0.0,-0.0,--.--,--.--,--.--,--.--,--.--,--.--,0.0,0.0,57.9,-1.9,-0.9,0.0,--.--,--.--,--.--,0,0,0.0,0.0,0.0,0,0,0,--.--,--.--,--.--
2022-11-27 15:14:47.629,0.3,0.1,57,0.0,0.0,0.0,0.0,0.0,0.000,-0.0,-0.2,443.9,-0.216,0.000,0.000,0.0,00:00:19,0.0,0,0,--.--,52518.0,0,0000:54:17,0,1,1,16.20,-1.00,0,--.--,100,--.--,--:--:--,1,-16.20,15:14:47,11/27/22,--.--,--.--,--.--,--.--,--.--,--.--,--.--,--.--,--.--,--.--,--.--,--.--,0,0.000,0.000,0.000,0.000,0.000,0.000,0.000,0.000,0.000,0.000,0.000,0.000,true,true,true,true,true,true,true,false,true,true,false,false,0.00,0.05,0.00,0.00,0.00,0.00,0.04,0.11,31.3637911,34.8771151,36RXV 78531 71442,0.0,0.0,0.0,3,15,--.--,--.--,,--.--,--.--,--.--,0,0,--.--,--.--,0,0.2,0.1,0.3,-0.0,0.0,0.0,--.--,--.--,--.--,--.--,--.--,--.--,0.0,0.0,57.9,-1.9,-0.9,-0.0,--.--,--.--,--.--,0,0,0.0,0.0,0.0,0,0,0,--.--,--.--,--.--
2022-11-27 15:14:48.634,0.3,0.1,57,0.1,0.0,-0.0,0.0,0.0,0.000,0.0,-0.2,443.9,-0.217,0.000,0.000,0.0,00:00:19,0.0,0,0,--.--,52518.0,0,0000:54:17,0,1,1,16.20,-1.00,0,--.--,100,--.--,--:--:--,1,-16.20,15:14:48,11/27/22,--.--,--.--,--.--,--.--,--.--,--.--,--.--,--.--,--.--,--.--,--.--,--.--,0,0.000,0.000,0.000,0.000,0.000,0.000,0.000,0.000,0.000,0.000,0.000,0.000,true,true,true,true,true,true,true,false,true,true,false,false,0.00,0.04,0.00,0.00,0.00,0.00,0.03,0.11,31.3637903,34.8771128,36RXV 78531 71442,0.0,0.0,0.0,3,15,--.--,--.--,,--.--,--.--,--.--,0,0,--.--,--.--,0,0.2,0.1,0.3,0.0,-0.0,0.0,--.--,--.--,--.--,--.--,--.--,--.--,0.0,0.0,57.9,-1.9,-0.9,0.0,--.--,--.--,--.--,0,0,0.0,0.0,0.0,0,0,0,--.--,--.--,--.--
2022-11-27 15:14:49.632,0.3,0.1,57,0.0,-0.0,-0.0,0.0,0.0,0.000,0.0,-0.2,443.9,-0.217,0.000,0.000,0.0,00:00:19,0.0,0,0,--.--,52518.0,0,0000:54:17,0,1,1,16.20,-1.00,0,--.--,100,--.--,--:--:--,1,-16.20,15:14:49,11/27/22,--.--,--.--,--.--,--.--,--.--,--.--,--.--,--.--,--.--,--.--,--.--,--.--,0,0.000,0.000,0.000,0.000,0.000,0.000,0.000,0.000,0.000,0.000,0.000,0.000,true,true,true,true,true,true,true,false,true,true,false,false,0.00,0.04,0.00,0.00,0.00,0.00,0.03,0.11,31.3637899,34.8771148,36RXV 78531 71442,0.0,0.0,0.0,3,15,--.--,--.--,,--.--,--.--,--.--,0,0,--.--,--.--,0,0.2,0.1,0.3,0.0,0.0,-0.0,--.--,--.--,--.--,--.--,--.--,--.--,0.0,0.0,57.9,-1.9,-0.9,0.0,--.--,--.--,--.--,0,0,0.0,0.0,0.0,0,0,0,--.--,--.--,--.--
2022-11-27 15:14:50.626,0.3,0.1,57,0.0,-0.1,0.0,0.0,0.0,0.000,-0.0,-0.2,443.9,-0.217,0.000,0.000,0.0,00:00:19,0.0,0,0,--.--,52518.0,0,0000:54:17,0,1,1,16.20,-1.00,0,--.--,100,--.--,--:--:--,1,-16.20,15:14:50,11/27/22,--.--,--.--,--.--,--.--,--.--,--.--,--.--,--.--,--.--,--.--,--.--,--.--,0,0.000,0.000,0.000,0.000,0.000,0.000,0.000,0.000,0.000,0.000,0.000,0.000,true,true,true,true,true,true,true,false,true,true,false,false,0.00,0.05,0.00,0.00,0.00,0.00,0.03,0.11,31.3637890,34.8771131,36RXV 78531 71442,0.0,0.0,0.0,3,15,--.--,--.--,,--.--,--.--,--.--,0,0,--.--,--.--,0,0.2,0.1,0.3,0.0,0.0,0.0,--.--,--.--,--.--,--.--,--.--,--.--,0.0,0.0,57.9,-1.9,-0.9,0.0,--.--,--.--,--.--,0,0,0.0,0.0,0.0,0,0,0,--.--,--.--,--.--
2022-11-27 15:14:51.627,0.3,0.1,57,0.1,0.0,-0.0,0.0,0.0,0.000,-0.0,-0.2,443.9,-0.217,0.000,0.000,0.0,00:00:19,0.0,0,0,--.--,52518.0,0,0000:54:17,0,1,1,16.20,-1.00,0,--.--,100,--.--,--:--:--,1,-16.20,15:14:51,11/27/22,--.--,--.--,--.--,--.--,--.--,--.--,--.--,--.--,--.--,--.--,--.--,--.--,0,0.000,0.000,0.000,0.000,0.000,0.000,0.000,0.000,0.000,0.000,0.000,0.000,true,true,true,true,true,true,true,false,true,true,false,false,0.00,0.05,0.00,0.00,0.00,0.00,0.03,0.11,31.3637910,34.8771148,36RXV 78531 71442,0.0,0.0,0.0,3,15,--.--,--.--,,--.--,--.--,--.--,0,0,--.--,--.--,0,0.2,0.1,0.3,0.0,-0.0,-0.0,--.--,--.--,--.--,--.--,--.--,--.--,0.0,0.0,57.9,-1.9,-0.9,0.0,--.--,--.--,--.--,0,0,0.0,0.0,0.0,0,0,0,--.--,--.--,--.--
2022-11-27 15:14:52.627,0.3,0.1,57,0.1,0.0,0.0,0.0,0.0,0.000,0.0,-0.2,443.9,-0.217,0.000,0.000,0.0,00:00:19,0.0,0,0,--.--,52518.0,0,0000:54:17,0,1,1,16.20,-1.00,0,--.--,100,--.--,--:--:--,1,-16.20,15:14:52,11/27/22,--.--,--.--,--.--,--.--,--.--,--.--,--.--,--.--,--.--,--.--,--.--,--.--,0,0.000,0.000,0.000,0.000,0.000,0.000,0.000,0.000,0.000,0.000,0.000,0.000,true,true,true,true,true,true,true,false,true,true,false,false,0.00,0.07,0.00,0.00,0.00,0.00,0.03,0.11,31.3637915,34.8771146,36RXV 78531 71442,0.0,0.0,0.0,3,15,--.--,--.--,,--.--,--.--,--.--,0,0,--.--,--.--,0,0.2,0.1,0.3,-0.0,-0.0,-0.0,--.--,--.--,--.--,--.--,--.--,--.--,0.0,0.0,57.9,-1.9,-0.9,0.0,--.--,--.--,--.--,0,0,0.0,0.0,0.0,0,0,0,--.--,--.--,--.--
2022-11-27 15:14:53.627,0.3,0.1,57,0.0,0.0,-0.0,0.0,0.0,0.000,0.0,-0.2,443.9,-0.218,0.000,0.000,0.0,00:00:19,0.0,0,0,--.--,52518.0,0,0000:54:17,0,1,1,16.20,-1.00,0,--.--,100,--.--,--:--:--,1,-16.20,15:14:53,11/27/22,--.--,--.--,--.--,--.--,--.--,--.--,--.--,--.--,--.--,--.--,--.--,--.--,0,0.000,0.000,0.000,0.000,0.000,0.000,0.000,0.000,0.000,0.000,0.000,0.000,true,true,true,true,true,true,true,false,true,true,false,false,0.00,0.07,0.00,0.00,0.00,0.00,0.03,0.11,31.3637879,34.8771152,36RXV 78531 71442,0.0,0.0,0.0,3,15,--.--,--.--,,--.--,--.--,--.--,0,0,--.--,--.--,0,0.2,0.1,0.3,-0.0,0.0,-0.0,--.--,--.--,--.--,--.--,--.--,--.--,0.0,0.0,57.9,-1.9,-0.9,0.0,--.--,--.--,--.--,0,0,0.0,0.0,0.0,0,0,0,--.--,--.--,--.--
2022-11-27 15:14:54.626,0.3,0.1,57,0.0,0.0,-0.1,0.0,0.0,0.000,-0.0,-0.2,443.9,-0.218,0.000,0.000,0.0,00:00:19,0.0,0,0,--.--,52518.0,0,0000:54:17,0,1,1,16.20,-1.00,0,--.--,100,--.--,--:--:--,1,-16.20,15:14:54,11/27/22,--.--,--.--,--.--,--.--,--.--,--.--,--.--,--.--,--.--,--.--,--.--,--.--,0,0.000,0.000,0.000,0.000,0.000,0.000,0.000,0.000,0.000,0.000,0.000,0.000,true,true,true,true,true,true,true,false,true,true,false,false,0.00,0.03,0.01,0.00,0.00,0.00,0.03,0.10,31.3637903,34.8771132,36RXV 78531 71442,0.0,0.0,0.0,3,15,--.--,--.--,,--.--,--.--,--.--,0,0,--.--,--.--,0,0.2,0.1,0.3,-0.0,0.0,0.0,--.--,--.--,--.--,--.--,--.--,--.--,0.0,0.0,57.9,-1.9,-0.9,0.0,--.--,--.--,--.--,0,0,0.0,0.0,0.0,0,0,0,--.--,--.--,--.--
2022-11-27 15:14:55.626,0.3,0.1,57,0.0,-0.0,-0.0,0.0,0.0,0.000,-0.0,-0.2,443.9,-0.218,0.000,0.000,0.0,00:00:19,0.0,0,0,--.--,52518.0,0,0000:54:17,0,1,1,16.20,-1.00,0,--.--,100,--.--,--:--:--,1,-16.20,15:14:55,11/27/22,--.--,--.--,--.--,--.--,--.--,--.--,--.--,--.--,--.--,--.--,--.--,--.--,0,0.000,0.000,0.000,0.000,0.000,0.000,0.000,0.000,0.000,0.000,0.000,0.000,true,true,true,true,true,true,true,false,true,true,false,false,0.00,0.03,0.01,0.00,0.00,0.00,0.03,0.10,31.3637902,34.8771136,36RXV 78531 71442,0.0,0.0,0.0,3,15,--.--,--.--,,--.--,--.--,--.--,0,0,--.--,--.--,0,0.2,0.1,0.3,-0.0,0.0,0.0,--.--,--.--,--.--,--.--,--.--,--.--,0.0,0.0,57.9,-1.9,-0.9,0.0,--.--,--.--,--.--,0,0,0.0,0.0,0.0,0,0,0,--.--,--.--,--.--
2022-11-27 15:14:56.626,0.3,0.1,57,0.0,-0.0,-0.1,0.0,0.0,0.000,0.0,-0.2,443.9,-0.218,0.000,0.000,0.0,00:00:19,0.0,0,0,--.--,52518.0,0,0000:54:17,0,1,1,16.20,-1.00,0,--.--,100,--.--,--:--:--,1,-16.20,15:14:56,11/27/22,--.--,--.--,--.--,--.--,--.--,--.--,--.--,--.--,--.--,--.--,--.--,--.--,0,0.000,0.000,0.000,0.000,0.000,0.000,0.000,0.000,0.000,0.000,0.000,0.000,true,true,true,true,true,true,true,false,true,true,false,false,0.00,0.01,0.00,0.00,0.00,0.00,0.03,0.10,31.3637906,34.8771141,36RXV 78531 71442,0.0,0.0,0.0,3,15,--.--,--.--,,--.--,--.--,--.--,0,0,--.--,--.--,0,0.2,0.1,0.3,-0.0,0.0,-0.0,--.--,--.--,--.--,--.--,--.--,--.--,0.0,0.0,57.9,-1.9,-0.9,0.0,--.--,--.--,--.--,0,0,0.0,0.0,0.0,0,0,0,--.--,--.--,--.--
2022-11-27 15:14:57.626,0.3,0.1,57,0.0,0.0,0.0,0.0,0.0,0.000,-0.0,-0.2,443.9,-0.219,0.000,0.000,0.0,00:00:19,0.0,0,0,--.--,52518.0,0,0000:54:17,0,1,1,16.20,-1.00,0,--.--,100,--.--,--:--:--,1,-16.20,15:14:57,11/27/22,--.--,--.--,--.--,--.--,--.--,--.--,--.--,--.--,--.--,--.--,--.--,--.--,0,0.000,0.000,0.000,0.000,0.000,0.000,0.000,0.000,0.000,0.000,0.000,0.000,true,true,true,true,true,true,true,false,true,true,false,false,0.00,0.01,0.00,0.00,0.00,0.00,0.03,0.10,31.3637901,34.8771120,36RXV 78531 71442,0.0,0.0,0.0,3,15,--.--,--.--,,--.--,--.--,--.--,0,0,--.--,--.--,0,0.2,0.1,0.3,0.0,-0.0,0.0,--.--,--.--,--.--,--.--,--.--,--.--,0.0,0.0,57.9,-1.9,-0.9,0.0,--.--,--.--,--.--,0,0,0.0,0.0,0.0,0,0,0,--.--,--.--,--.--
2022-11-27 15:14:58.626,0.3,0.1,57,0.0,0.0,0.0,0.0,0.0,0.000,-0.0,-0.2,443.9,-0.219,0.000,0.000,0.0,00:00:19,0.0,0,0,--.--,52518.0,0,0000:54:17,0,1,1,16.20,-1.00,0,--.--,100,--.--,--:--:--,1,-16.20,15:14:58,11/27/22,--.--,--.--,--.--,--.--,--.--,--.--,--.--,--.--,--.--,--.--,--.--,--.--,0,0.000,0.000,0.000,0.000,0.000,0.000,0.000,0.000,0.000,0.000,0.000,0.000,true,true,true,true,true,true,true,false,true,true,false,false,0.00,0.04,0.00,0.00,0.00,0.00,0.03,0.10,31.3637910,34.8771141,36RXV 78531 71442,0.0,0.0,0.0,3,15,--.--,--.--,,--.--,--.--,--.--,0,0,--.--,--.--,0,0.2,0.1,0.3,-0.0,-0.0,0.0,--.--,--.--,--.--,--.--,--.--,--.--,0.0,0.0,57.9,-1.9,-0.9,0.0,--.--,--.--,--.--,0,0,0.0,0.0,0.0,0,0,0,--.--,--.--,--.--
2022-11-27 15:14:59.626,0.3,0.1,57,0.0,-0.1,0.0,0.0,0.0,0.000,-0.0,-0.2,443.9,-0.219,0.000,0.000,0.0,00:00:19,0.0,0,0,--.--,52518.0,0,0000:54:17,0,1,1,16.20,-1.00,0,--.--,100,--.--,--:--:--,1,-16.20,15:14:59,11/27/22,--.--,--.--,--.--,--.--,--.--,--.--,--.--,--.--,--.--,--.--,--.--,--.--,0,0.000,0.000,0.000,0.000,0.000,0.000,0.000,0.000,0.000,0.000,0.000,0.000,true,true,true,true,true,true,true,false,true,true,false,false,0.00,0.04,0.00,0.00,0.00,0.00,0.03,0.10,31.3637910,34.8771138,36RXV 78531 71442,0.0,0.0,0.0,3,15,--.--,--.--,,--.--,--.--,--.--,0,0,--.--,--.--,0,0.2,0.1,0.3,-0.0,-0.0,0.0,--.--,--.--,--.--,--.--,--.--,--.--,0.0,0.0,57.9,-1.9,-0.9,0.0,--.--,--.--,--.--,0,0,0.0,0.0,0.0,0,0,0,--.--,--.--,--.--
2022-11-27 15:15:00.626,0.3,0.1,57,-0.0,0.0,-0.0,0.0,0.0,0.000,0.0,-0.2,443.9,-0.219,0.000,0.000,0.0,00:00:19,0.0,0,0,--.--,52518.0,0,0000:54:17,0,1,1,16.20,-1.00,0,--.--,100,--.--,--:--:--,1,-16.20,15:15:00,11/27/22,--.--,--.--,--.--,--.--,--.--,--.--,--.--,--.--,--.--,--.--,--.--,--.--,0,0.000,0.000,0.000,0.000,0.000,0.000,0.000,0.000,0.000,0.000,0.000,0.000,true,true,true,true,true,true,true,false,true,true,false,false,0.00,0.04,0.00,0.00,0.00,0.00,0.03,0.10,31.3637895,34.8771149,36RXV 78531 71442,0.0,0.0,0.0,3,15,--.--,--.--,,--.--,--.--,--.--,0,0,--.--,--.--,0,0.2,0.1,0.3,-0.0,-0.0,-0.0,--.--,--.--,--.--,--.--,--.--,--.--,0.0,0.0,57.9,-1.9,-1.0,0.0,--.--,--.--,--.--,0,0,0.0,0.0,0.0,0,0,0,--.--,--.--,--.--
2022-11-27 15:15:01.626,0.3,0.1,57,-0.0,0.0,0.0,0.0,0.0,0.000,-0.0,-0.0,443.9,-0.220,0.000,0.000,0.0,00:00:19,0.0,0,0,--.--,52518.0,0,0000:54:17,0,1,1,16.20,-1.00,0,--.--,100,--.--,--:--:--,1,-16.20,15:15:01,11/27/22,--.--,--.--,--.--,--.--,--.--,--.--,--.--,--.--,--.--,--.--,--.--,--.--,0,0.000,0.000,0.000,0.000,0.000,0.000,0.000,0.000,0.000,0.000,0.000,0.000,true,true,true,true,true,true,true,false,true,true,false,false,0.00,0.04,0.00,0.00,0.00,0.00,0.03,0.10,31.3637894,34.8771130,36RXV 78531 71442,0.0,0.0,0.0,3,15,--.--,--.--,,--.--,--.--,--.--,0,0,--.--,--.--,0,0.2,0.1,0.3,-0.0,-0.0,0.0,--.--,--.--,--.--,--.--,--.--,--.--,0.0,0.0,57.9,-1.9,-0.9,0.0,--.--,--.--,--.--,0,0,0.0,0.0,0.0,0,0,0,--.--,--.--,--.--
2022-11-27 15:15:02.626,0.3,0.1,57,-0.0,0.0,-0.1,0.0,0.0,0.000,-0.0,-0.0,443.9,-0.220,0.000,0.000,0.0,00:00:19,0.0,0,0,--.--,52518.0,0,0000:54:17,0,1,1,16.20,-1.00,0,--.--,100,--.--,--:--:--,1,-16.20,15:15:02,11/27/22,--.--,--.--,--.--,--.--,--.--,--.--,--.--,--.--,--.--,--.--,--.--,--.--,0,0.000,0.000,0.000,0.000,0.000,0.000,0.000,0.000,0.000,0.000,0.000,0.000,true,true,true,true,true,true,true,false,true,true,false,false,0.00,0.01,0.00,0.00,0.00,0.00,0.03,0.10,31.3637902,34.8771138,36RXV 78531 71442,0.0,0.0,0.0,3,15,--.--,--.--,,--.--,--.--,--.--,0,0,--.--,--.--,0,0.2,0.1,0.3,0.0,0.0,0.0,--.--,--.--,--.--,--.--,--.--,--.--,0.0,0.0,57.9,-1.9,-0.9,0.0,--.--,--.--,--.--,0,0,0.0,0.0,0.0,0,0,0,--.--,--.--,--.--
2022-11-27 15:15:03.626,0.3,0.1,57,0.0,-0.0,-0.0,0.0,0.0,0.000,-0.0,-0.0,443.9,-0.220,0.000,0.000,0.0,00:00:19,0.0,0,0,--.--,52518.0,0,0000:54:17,0,1,1,16.20,-1.00,0,--.--,100,--.--,--:--:--,1,-16.20,15:15:03,11/27/22,--.--,--.--,--.--,--.--,--.--,--.--,--.--,--.--,--.--,--.--,--.--,--.--,0,0.000,0.000,0.000,0.000,0.000,0.000,0.000,0.000,0.000,0.000,0.000,0.000,true,true,true,true,true,true,true,false,true,true,false,false,0.00,0.01,0.00,0.00,0.00,0.00,0.03,0.10,31.3637892,34.8771146,36RXV 78531 71442,0.0,0.0,0.0,3,15,--.--,--.--,,--.--,--.--,--.--,0,0,--.--,--.--,0,0.2,0.1,0.3,-0.0,0.0,0.0,--.--,--.--,--.--,--.--,--.--,--.--,0.0,0.0,57.9,-1.9,-0.9,0.0,--.--,--.--,--.--,0,0,0.0,0.0,0.0,0,0,0,--.--,--.--,--.--
2022-11-27 15:15:04.633,0.3,0.1,57,-0.1,0.0,0.0,0.0,0.0,0.000,0.0,-0.0,443.9,-0.220,0.000,0.000,0.0,00:00:19,0.0,0,0,--.--,52518.0,0,0000:54:17,0,1,1,16.20,-1.00,0,--.--,100,--.--,--:--:--,1,-16.20,15:15:04,11/27/22,--.--,--.--,--.--,--.--,--.--,--.--,--.--,--.--,--.--,--.--,--.--,--.--,0,0.000,0.000,0.000,0.000,0.000,0.000,0.000,0.000,0.000,0.000,0.000,0.000,true,true,true,true,true,true,true,false,true,true,false,false,0.00,0.03,0.00,0.00,0.00,0.00,0.03,0.10,31.3637902,34.8771133,36RXV 78531 71442,0.0,0.0,0.0,3,15,--.--,--.--,,--.--,--.--,--.--,0,0,--.--,--.--,0,0.2,0.1,0.3,-0.0,0.0,-0.0,--.--,--.--,--.--,--.--,--.--,--.--,0.0,0.0,57.9,-1.9,-0.9,0.0,--.--,--.--,--.--,0,0,0.0,0.0,0.0,0,0,0,--.--,--.--,--.--
2022-11-27 15:15:05.629,0.3,0.1,57,0.0,-0.0,0.0,0.0,0.0,0.000,-0.0,-0.0,443.9,-0.221,0.000,0.000,0.0,00:00:19,0.0,0,0,--.--,52518.0,0,0000:54:17,0,1,1,16.20,-1.00,0,--.--,100,--.--,--:--:--,1,-16.20,15:15:05,11/27/22,--.--,--.--,--.--,--.--,--.--,--.--,--.--,--.--,--.--,--.--,--.--,--.--,0,0.000,0.000,0.000,0.000,0.000,0.000,0.000,0.000,0.000,0.000,0.000,0.000,true,true,true,true,true,true,true,false,true,true,false,false,0.00,0.03,0.00,0.00,0.00,0.00,0.03,0.10,31.3637901,34.8771125,36RXV 78531 71442,0.0,0.0,0.0,3,15,--.--,--.--,,--.--,--.--,--.--,0,0,--.--,--.--,0,0.2,0.1,0.3,-0.0,0.0,0.0,--.--,--.--,--.--,--.--,--.--,--.--,0.0,0.0,57.9,-1.9,-0.9,0.0,--.--,--.--,--.--,0,0,0.0,0.0,0.0,0,0,0,--.--,--.--,--.--
2022-11-27 15:15:06.627,0.3,0.1,57,-0.0,-0.1,0.0,0.0,0.0,0.000,0.0,-0.0,443.9,-0.221,0.000,0.000,0.0,00:00:19,0.0,0,0,--.--,52518.0,0,0000:54:17,0,1,1,16.20,-1.00,0,--.--,100,--.--,--:--:--,1,-16.20,15:15:06,11/27/22,--.--,--.--,--.--,--.--,--.--,--.--,--.--,--.--,--.--,--.--,--.--,--.--,0,0.000,0.000,0.000,0.000,0.000,0.000,0.000,0.000,0.000,0.000,0.000,0.000,true,true,true,true,true,true,true,false,true,true,false,false,0.00,0.03,0.00,0.00,0.00,0.00,0.03,0.10,31.3637899,34.8771149,36RXV 78531 71442,0.0,0.0,0.0,3,15,--.--,--.--,,--.--,--.--,--.--,0,0,--.--,--.--,0,0.2,0.1,0.3,0.0,0.0,-0.0,--.--,--.--,--.--,--.--,--.--,--.--,0.0,0.0,57.9,-1.9,-0.9,0.0,--.--,--.--,--.--,0,0,0.0,0.0,0.0,0,0,0,--.--,--.--,--.--
2022-11-27 15:15:07.633,0.3,0.1,57,-0.0,-0.0,0.0,0.0,0.0,0.000,-0.0,-0.0,443.9,-0.221,0.000,0.000,0.0,00:00:19,0.0,0,0,--.--,52518.0,0,0000:54:17,0,1,1,16.20,-1.00,0,--.--,100,--.--,--:--:--,1,-16.20,15:15:07,11/27/22,--.--,--.--,--.--,--.--,--.--,--.--,--.--,--.--,--.--,--.--,--.--,--.--,0,0.000,0.000,0.000,0.000,0.000,0.000,0.000,0.000,0.000,0.000,0.000,0.000,true,true,true,true,true,true,true,false,true,true,false,false,0.00,0.03,0.00,0.00,0.00,0.00,0.03,0.10,31.3637907,34.8771118,36RXV 78531 71442,0.0,0.0,0.0,3,15,--.--,--.--,,--.--,--.--,--.--,0,0,--.--,--.--,0,0.2,0.1,0.3,0.0,0.0,0.0,--.--,--.--,--.--,--.--,--.--,--.--,0.0,0.0,57.9,-1.9,-0.9,0.0,--.--,--.--,--.--,0,0,0.0,0.0,0.0,0,0,0,--.--,--.--,--.--
